Address1,Address2,Address3,Class 1,Class 2,Class 3,Class 4,Class 5,Class 7,Phone,Postcode,Site ID,Town,Trading Name,_id,latitude,longitude,location_type
80A BROOMHILL ROAD,,,0,0,0,1,0,0,"_,01224585195",AB10 6HU,7167B3,ABERDEEN,CARDEN MOTOR COMPANY,{'$oid': '6413ca51080004ea81cb768d'},57.13507389999999,-2.120207,Point
21 ASHLEY PARK LANE,,,0,0,0,1,0,0,"_,01224595880",AB10 6RZ,96237,ABERDEEN,ALAN J ROSS MOTOR ENGINEERS LTD,{'$oid': '6413ca51080004ea81cb768e'},57.13652579999999,-2.1244005,Point
25 ALBYN LANE,,,0,0,0,1,0,0,"_,01224581164",AB10 6XF,96572,ABERDEEN,ALBYN GARAGE ABERDEEN LTD,{'$oid': '6413ca51080004ea81cb768f'},57.1419035,-2.1196847,Point
26 MEARNS STREET,,,0,0,0,1,0,0,"_,01224585398",AB11 5AT,1ALC03,ABERDEEN,KENWAY TYRES LTD,{'$oid': '6413ca51080004ea81cb7690'},57.1478491,-2.0889919,Point
29 COTTON STREET,,,0,0,0,1,0,0,"_,01224584138",AB11 5EE,98253,ABERDEEN,DOD SIMS GARAGE,{'$oid': '6413ca51080004ea81cb7691'},57.1500216,-2.0856232,Point
POYNERNOOK ROAD,,,0,0,0,1,0,0,"_,01224586376",AB11 5PT,96462,ABERDEEN,KWIK FIT,{'$oid': '6413ca51080004ea81cb7692'},57.141336,-2.0906771,Point
237 MARKET STREET,,,0,0,0,1,0,0,"_,01224211682",AB11 5PT,96528,ABERDEEN,HALFORDS AUTOCENTRE,{'$oid': '6413ca51080004ea81cb7693'},57.14147550000001,-2.0902554,Point
18 NORTH ESPLANDE WEST,,,0,0,0,1,1,1,"_,01224 595 533",AB11 5RJ,S004055,ABERDEEN,SJD MOTORS,{'$oid': '6413ca51080004ea81cb7694'},57.1377949,-2.0964769,Point
CITROEN COMPLEX,GIRDLENESS ROAD,,0,0,0,1,1,1,"_,01224 238 520",AB11 8DU,S000654,ABERDEEN,ARNOLD CLARK,{'$oid': '6413ca51080004ea81cb7695'},57.1294589,-2.0899252,Point
136-140 SINCLAIR ROAD,TORRY,,0,0,0,1,1,1,"_,01224877699",AB11 9PR,5964BN,ABERDEEN,G B ENGLAND GARAGE SERVICES,{'$oid': '6413ca51080004ea81cb7696'},57.13833580000001,-2.0790039,Point
8 CRAIGSHAW PLACE,WEST TULLOS,,1,1,0,0,0,0,"_,01224 481111",AB12 3AH,S002837,ABERDEEN,ECOSSE MOTORCYCLES LTD,{'$oid': '6413ca51080004ea81cb7697'},57.1241447,-2.0959017,Point
AUTOPLEX,ABBOTSWELL ROAD,,0,0,0,1,0,1,"_,01224 677800",AB12 3AD,S000194,ABERDEEN,CLARK COMMERCIAL (ABERDEEN) LTD,{'$oid': '6413ca51080004ea81cb7698'},57.126424,-2.0955543,Point
CRAIGSHAW CRESCENT,,,0,0,0,1,0,0,"_,01224384000",AB12 3AW,1ALR19,ABERDEEN,SPECIALIST CARS (ABERDEEN) LIMITED,{'$oid': '6413ca51080004ea81cb7699'},57.123772,-2.0936161,Point
GREENWELL ROAD,EAST TULLOS,,0,0,0,1,0,1,"_,01224384138",AB12 3AX,1ALC50,ABERDEEN,SPECIALIST CARS,{'$oid': '6413ca51080004ea81cb769a'},57.128724,-2.0817487,Point
31 CRAIGSHAW DRIVE,WEST TULLOS INDUSTRIAL ESTATE,,0,0,0,1,0,0,"_,01224 634211",AB12 3BE,V103244,ABERDEEN,ARNOLD CLARK,{'$oid': '6413ca51080004ea81cb769b'},57.1226014,-2.0903761,Point
WELLINGTON ROAD,EAST TULLOS,,0,0,0,1,0,0,"_,01224249787",AB12 3BJ,1137BW,ABERDEEN,ARNOLD CLARK,{'$oid': '6413ca51080004ea81cb769c'},57.1245332,-2.0895604,Point
12 GREENBANK PLACE,,,0,0,0,1,1,1,"_,01224 872891",AB12 3BT,V109765,ABERDEEN,AIRYLEA MOTORS,{'$oid': '6413ca51080004ea81cb769d'},57.1265851,-2.0842342,Point
WELLINGTON ROAD,,,0,0,0,1,0,0,"_,01224 001077",AB12 3DN,S002438,ABERDEEN,ARNOLD CLARK,{'$oid': '6413ca51080004ea81cb769e'},57.1298533,-2.0930832,Point
WELLINGTON ROAD,WEST TULLOS,,1,1,0,1,0,0,"_,01224 335577",AB12 3EW,1ALE99,ABERDEEN,JOHN CLARK (ABERDEEN) LIMITED,{'$oid': '6413ca51080004ea81cb769f'},57.1244073,-2.0896492,Point
2 BALNAGASK ROAD,,,0,0,0,1,0,0,"_,01224872917",AB11 8HX,96581,ABERDEEN,HALFORDS AUTOCENTRE,{'$oid': '6413ca51080004ea81cb76a0'},57.12998409999999,-2.0919181,Point
BARMORAL BUSINESS PARK,"WELLINGTON CIRCLE, LOCHSIDE",NEWLANDS INDUSTRIAL ESTATE,0,0,0,1,0,0,"_,01224 402990",AB12 3GY,V109267,ABERDEEN,CLARK COMMERCIAL (ABERDEEN) LTD,{'$oid': '6413ca51080004ea81cb76a1'},57.1091677,-2.0956487,Point
HILLVIEW ROAD,,,0,0,0,1,0,0,"_,01224 249 787",AB12 3HL,S000783,ABERDEEN,ARNOLD CLARK,{'$oid': '6413ca51080004ea81cb76a2'},57.1253516,-2.0878924,Point
WELLINGTON CIRCLE,,,1,1,0,0,0,0,"_,01224 584 855",AB12 3JG,S003795,ABERDEEN,SHIRLAWS LIMITED,{'$oid': '6413ca51080004ea81cb76a3'},57.1091677,-2.0956487,Point
UNITS 7 - 9 ALTENS LORRY PARK,HARENESS ROAD,ALTENS,0,0,0,1,0,0,"_,01224 871518",AB12 3LE,1ALC23,ABERDEEN,TYRESERVICES ABERDEEN LTD,{'$oid': '6413ca51080004ea81cb76a4'},57.1159335,-2.0871451,Point
ABERDEEN AUDI,BALMORAL PARK,WELLINGTON CIRCLE,0,0,0,1,0,0,"_,01224 400500",AB12 3GY,V110523,ABERDEEN,ABERDEEN AUDI,{'$oid': '6413ca51080004ea81cb76a5'},57.1054428,-2.0973177,Point
SOUTERHEAD GARAGE LTD,BLOCK 2 UNITS 8 10 SOUTERHEAD INDUSTRIAL CENTRE,SOUTERHEAD ROAD ALTENS,0,0,0,1,0,0,"_,01224248772",AB12 3LF,V104698,ABERDEEN,SOUTERHEAD GARAGE LTD,{'$oid': '6413ca51080004ea81cb76a6'},57.1084314,-2.0799907,Point
HARENESS ROAD,ALTENS,,0,0,0,1,0,1,"_,01224 896868",AB12 3LE,V103012,ABERDEEN,CENTRAL GARAGE,{'$oid': '6413ca51080004ea81cb76a7'},57.1152184,-2.0760095,Point
PETER VARDY LTD,WELLINGTON ROAD,WEST TULLOS INDUSTRIAL ESTATE,0,0,0,1,0,0,"_,01224 871219",AB12 3LQ,S000438,ABERDEEN,PETER VARDY LIMITED,{'$oid': '6413ca51080004ea81cb76a8'},57.1247335,-2.0906529,Point
MINTO DRIVE,ALTENS,,0,0,0,1,0,0,"_,07980011727",AB12 3LW,S004167,ABERDEEN,TRUST FORD ABERDEEN,{'$oid': '6413ca51080004ea81cb76a9'},57.1166494,-2.0726553,Point
CRAIGSHAW ROAD,WEST TULLOS,,0,0,0,1,0,0,"_,01224 402900",AB12 3ZG,V108297,ABERDEEN,"SPECIALIST CARS, SKODA,SEAT.",{'$oid': '6413ca51080004ea81cb76aa'},57.1254279,-2.094729,Point
"BRIDGE END, DOWNIES ROAD",PORTLETHEN,,1,1,0,1,0,0,"_,01224781158",AB12 4QN,98341,ABERDEEN,LETHEN MOTORS LTD,{'$oid': '6413ca51080004ea81cb76ab'},57.0561826,-2.1310032,Point
MONZIE,HILLSIDE,PORTLETHEN,0,0,0,1,0,0,"_,01224781888",AB12 4RD,96281,ABERDEEN,COULL CARS LTD,{'$oid': '6413ca51080004ea81cb76ac'},57.0732139,-2.1269485,Point
BLACKHILLS INDUSTRIAL ESTATE,FINDON,PORTLETHEN,0,0,0,1,0,1,"_,01224 780505",AB12 4RL,V109636,ABERDEEN,B A MECHANICAL SERVICES,{'$oid': '6413ca51080004ea81cb76ad'},57.0685453,-2.111424,Point
WELLINGTON CIRCLE,ALTENS,,0,0,0,1,0,1,"_,01224870293",AB12 3TT,G3216,ABERDEEN,,{'$oid': '6413ca51080004ea81cb76ae'},57.1118126,-2.0936519,Point
UNIT 4,HARENESS CIRCLE,ALTENS,0,0,0,1,0,1,"_,01224 230 750",AB12 3LY,S001373,ABERDEENSHIRE,LAWS TYRES LTD,{'$oid': '6413ca51080004ea81cb76af'},57.113797,-2.0821385,Point
UNIT 3 FORTIES INDUSTRIAL CENTRE,HARNESS CIRCLE,ATLENS,0,0,0,1,1,1,"_,01224 875555",AB12 3LY,S002780,ABERDEEN,OLDMILL GARAGE SERVICES,{'$oid': '6413ca51080004ea81cb76b0'},57.1137501,-2.0772209,Point
PORCHE CENTRE,WELLINGTON ROAD,,0,0,0,1,0,0,"_,01224 877778",AB12 3TY,V110492,ABERDEEN,PETER VARDY PORSCHE LTD,{'$oid': '6413ca51080004ea81cb76b1'},57.1072465,-2.0939571,Point
BAY 2 UNIT 5A,MARYWELL COMMERCIAL PARK,MARYWELL,1,1,0,1,0,0,"_,07378 337882",AB12 4SB,S003984,ABERDEEN,CT GARAGE ABERDEEN LIMITED,{'$oid': '6413ca51080004ea81cb76b2'},57.0840769,-2.1088312,Point
WHITEMYRES PLACE,MASTRICK,,0,0,0,1,0,0,"_,01224681111",AB16 6HZ,5747BD,ABERDEEN,PARK'S HONDA ABERDEEN,{'$oid': '6413ca51080004ea81cb76b3'},57.1528622,-2.1583878,Point
SOUTH DEESIDE ROAD,BLAIRS,,0,0,0,1,0,0,"_,01224 875999",AB12 5YQ,96310,ABERDEEN,GREENBANK 4X4 GARAGE LIMITED,{'$oid': '6413ca51080004ea81cb76b4'},57.100875,-2.2022051,Point
OLD SKENE ROAD,KINGSWELLS,,0,0,0,1,0,0,"_,01224742520",AB15 8PD,1ALI52,ABERDEEN,ABERDEEN VOLKS CENTRE LTD,{'$oid': '6413ca51080004ea81cb76b5'},57.1467698,-2.2153364,Point
LANG STRACHT,MASTRICK,,0,0,0,1,0,1,"_,01224684848",AB16 6LA,96604,ABERDEEN,PETER VARDY CARZ,{'$oid': '6413ca51080004ea81cb76b6'},57.1507601,-2.176133,Point
DRUMVIEW GARAGE,MALCOLM ROAD,PETERCULTER,0,0,1,1,0,0,"_,01224 733600",AB14 0XB,4935A5,ABERDEEN,MMC MOTORS,{'$oid': '6413ca51080004ea81cb76b7'},57.1015678,-2.2755078,Point
UNIT 13 AIRSIDE BUSINESS PARK,KIRKHILL DRIVE,,0,0,0,1,0,0,"_,01651 862327",AB21 0GT,S003822,ABERDEEN,NORTH EAST MOTORS LTD,{'$oid': '6413ca51080004ea81cb76b8'},57.208476,-2.2109747,Point
17 KIRKHILL PLACE,KIRKHILL INDUSTRIAL ESTATE,DYCE,0,0,0,1,0,0,"_,01224771393",AB21 0GU,6815A4,ABERDEEN,KIRKHILL AUTO SERVICES LTD,{'$oid': '6413ca51080004ea81cb76b9'},57.203034,-2.2142593,Point
HILLBRAE WAY,,,0,0,0,1,0,0,"_,01651862011",AB21 0UR,1ALA95,NEWMACHAR,NEWMACHAR MOTORS LTD,{'$oid': '6413ca51080004ea81cb76ba'},57.2635212,-2.1813981,Point
WHYTEMYRES PLACE (2),LANG STRACHT,,0,0,0,1,0,0,"_,01224 504850",AB16 6HT,V108991,ABERDEEN,ARNOLD CLARK,{'$oid': '6413ca51080004ea81cb76bb'},57.152652,-2.1583625,Point
VICTORIA STREET,DYCE,,0,0,0,1,0,0,"_,01224729673",AB21 7AB,1ALB43,ABERDEEN,KWIK FIT,{'$oid': '6413ca51080004ea81cb76bc'},57.2116777,-2.1873503,Point
THE GARAGE,LOCHSIDE,"PARKHILL, DYCE",0,0,0,1,0,0,"_,01224724232",AB21 7AT,7718BG,ABERDEEN,LOCHSIDE MOTORS,{'$oid': '6413ca51080004ea81cb76bd'},57.2231466,-2.1765745,Point
FARBURN HOUSE,FARBURN TERRACE,DYCE,1,1,0,1,1,1,"_,01224775447",AB21 7DT,V105074,ABERDEEN,COLINS MOT & SERVICE CENTRE,{'$oid': '6413ca51080004ea81cb76be'},57.2021282,-2.1918477,Point
21A FARBURN TERRACE,DYCE,,0,0,0,1,0,0,"_,01224770471",AB21 7DR,98444,ABERDEEN,FARBURN MOTORS,{'$oid': '6413ca51080004ea81cb76bf'},57.203953,-2.1922612,Point
MAIN STREET,KINELLAR,BLACKBURN,1,1,0,1,0,0,"_,01224 791105",AB21 0SR,6974AX,ABERDEEN,KINELLAR GARAGE LTD,{'$oid': '6413ca51080004ea81cb76c0'},57.2035687,-2.2884592,Point
WELLHEADS ROAD,DYCE,,1,1,0,1,0,0,"_,01224 790347",AB21 7HG,S002250,ABERDEEN,BLACKBURN GARAGE LTD,{'$oid': '6413ca51080004ea81cb76c1'},57.1988649,-2.1808403,Point
HILL OF GOVAL,,,0,0,0,1,0,1,"_,07800658796",AB21 7NX,S003911,DYCE,R & G MOTOR SERVICES LIMITED,{'$oid': '6413ca51080004ea81cb76c2'},57.2321045,-2.1841446,Point
"UNIT 4, HOWE MOSS AVENUE",KIRKHILL INDUSTRIAL ESTATE,,0,0,0,1,0,1,"_,01224 772329",AB21 0GP,S002900,ABERDEEN,CGE GARAGE,{'$oid': '6413ca51080004ea81cb76c3'},57.2108128,-2.2159397,Point
28/30 WELLHEADS DRIVE,DYCE,,0,0,0,1,1,1,"_,01224 725412",AB21 7GQ,V106686,ABERDEEN,CLARK COMMERCIAL (ABERDEEN) LTD,{'$oid': '6413ca51080004ea81cb76c4'},57.19223849999999,-2.1870104,Point
NEWMACHAR,,,0,0,0,1,0,0,"_,01651862269",AB21 7UU,2177BE,NEWMACHAR,SWAILEND GARAGE,{'$oid': '6413ca51080004ea81cb76c5'},57.2394183,-2.190245,Point
BANKHEAD ROAD,BANKHEAD INDUSTRIAL ESTATE,BUCKSBURN,0,0,0,1,0,0,"_,01224713146",AB21 9EG,9010A4,ABERDEEN,COLINS MOT & SERVICE CENTRE,{'$oid': '6413ca51080004ea81cb76c6'},57.1815703,-2.1783182,Point
WHYTEMYRES PLACE (1),LANG STRACHT,,0,0,0,1,0,0,"_,01224 504 955",AB16 6HT,V108990,ABERDEEN,ARNOLD CLARK,{'$oid': '6413ca51080004ea81cb76c7'},57.152652,-2.1583625,Point
KINGSWELLS,,,0,0,0,1,1,1,"_,01224741212",AB15 8PD,4327AE,ABERDEEN,FIVE MILE GARAGE,{'$oid': '6413ca51080004ea81cb76c8'},57.1456706,-2.2336056,Point
2 AIRWAYS INDUSTRIAL ESTATE,PITMEDDEN ROAD,DYCE,0,0,0,1,0,0,"_,01224722391",AB21 0DT,8960AT,ABERDEEN,JOHN MCINNES (DYCE) LTD,{'$oid': '6413ca51080004ea81cb76c9'},57.2117471,-2.1959101,Point
UNIT 3 BANKHEAD INDUSTRIAL ESTATE,BANKHEAD AVENUE,BUCKSBURN,0,0,0,1,0,1,"_,01224714545",AB21 9ET,6670B5,ABERDEEN,NORTH EAST TYRE & AUTO LTD,{'$oid': '6413ca51080004ea81cb76ca'},57.1815703,-2.1783182,Point
48A MARKET STREET,STONEYWOOD,,0,0,0,1,0,0,"_,01224 714181",AB21 9JH,1727BJ,ABERDEEN,M & S MOTORS,{'$oid': '6413ca51080004ea81cb76cb'},57.1911721,-2.1825004,Point
MUGIEMOSS ROAD,,,0,0,0,1,0,0,"_,01224685000",AB21 9US,1247B1,ABERDEEN,STATION GARAGE,{'$oid': '6413ca51080004ea81cb76cc'},57.1743949,-2.1484558,Point
BROADFOLD  ROAD,BRIDGE OF DON,,0,0,0,1,0,0,"_,01224821010",AB23 8EE,96510,ABERDEEN,CAR CLINIC,{'$oid': '6413ca51080004ea81cb76cd'},57.1863823,-2.0968995,Point
BROADFOLD ROAD,BRIDGE OF DON,,0,0,0,1,0,0,"_,01224 821163",AB23 8EE,V101938,ABERDEEN,KENWAY TYRES LTD,{'$oid': '6413ca51080004ea81cb76ce'},57.1863823,-2.0968995,Point
UNIT 1,SCOTSTOWN ROAD,BRIDGE OF DON,0,0,0,1,0,0,"_,01224825277",AB23 8HG,7508A0,ABERDEEN,RSL MOTORS LTD,{'$oid': '6413ca51080004ea81cb76cf'},57.18698939999999,-2.1021678,Point
THE PARKWAY,GREENHOLE PLACE,BRIDGE OF DON,0,0,0,1,1,1,"_,01224 824666",AB23 8EU,V102314,ABERDEEN,MURISON COMMERCIALS LIMITED,{'$oid': '6413ca51080004ea81cb76d0'},57.1887319,-2.101229,Point
UNIT 25 MURCAR COMMERCIAL PARK,DENMORE ROAD,BRIDGE OF DON,0,0,0,1,0,0,"_,01224826262",AB23 8JW,4256AJ,ABERDEEN,DENMORE GARAGE LTD,{'$oid': '6413ca51080004ea81cb76d1'},57.2035162,-2.0895687,Point
BALMEDIE,,,0,0,0,1,0,0,"_,01358743470",AB23 8XR,6382A2,ABERDEEN,LAWRENCE OF KEMNAY,{'$oid': '6413ca51080004ea81cb76d2'},57.2504885,-2.0617823,Point
BELHELVIE,,,0,0,0,1,0,0,"_,01358742284",AB23 8YU,6180AK,BALMEDIE,CADGERS GARAGE LIMITED,{'$oid': '6413ca51080004ea81cb76d3'},57.2492329,-2.08863,Point
"UNIT 10, SPIRES BUSINESS UNITS",MUGIEMOSS ROAD,BUCKSBURN,0,0,0,1,0,0,"_,01224681391",AB21 9NY,V107353,ABERDEEN,GRANITE CITY MOTORS,{'$oid': '6413ca51080004ea81cb76d4'},57.1762296,-2.1602254,Point
BRIDGE OF DON GARAGE LTD,"UNIT 25, DENMORE INDUSTRIAL ESTATE","DENMORE ROAD, BRIDGE OF DON",0,0,0,1,0,0,"_,01224705690",AB23 8JW,V106238,ABERDEEN,BRIDGE OF DON GARAGE LTD,{'$oid': '6413ca51080004ea81cb76d5'},57.1953186,-2.0946657,Point
3A ELMFIELD PLACE,,,0,0,0,1,0,0,"_,01224 497855",AB24 3NW,V109467,ABERDEEN,UNICAR & AUTO CENTRE,{'$oid': '6413ca51080004ea81cb76d6'},57.1599419,-2.109243,Point
67 ARDARROCH ROAD,,,1,1,0,1,0,0,"_,01224 637274",AB24 5QS,V108260,ABERDEEN,A W AUTOTECH LTD,{'$oid': '6413ca51080004ea81cb76d7'},57.1610227,-2.0934128,Point
93 HUTCHEON STREET,,,0,0,0,1,0,0,"_,01224633163",AB25 3RS,9643AJ,ABERDEEN,BAVARIA AUTO WERKE LTD,{'$oid': '6413ca51080004ea81cb76d8'},57.1534835,-2.1063878,Point
30 HUTCHEON STREET,,,0,0,0,1,0,0,"_,01224635341",AB25 3TD,1ALN78,ABERDEEN,KWIK FIT,{'$oid': '6413ca51080004ea81cb76d9'},57.1544937,-2.1022975,Point
48 FRASER ROAD,,,0,0,0,1,0,0,"_,01224637114",AB25 3UH,96485,ABERDEEN,JAMES COOPER & SON,{'$oid': '6413ca51080004ea81cb76da'},57.155756,-2.109749700000001,Point
26-28 STAFFORD STREET,,,0,0,0,1,0,0,"_,01224641299",AB25 3UR,96586,ABERDEEN,PITSTOP (ABERDEEN) LTD,{'$oid': '6413ca51080004ea81cb76db'},57.1561057,-2.1109869,Point
STATION ROAD,,,0,0,0,1,0,1,"_,01561378844",AB30 1BF,1ALN37,LAURENCEKIRK,TOWER GARAGE MOT LTD,{'$oid': '6413ca51080004ea81cb76dc'},56.8356646,-2.4656608,Point
MEARNS MOTORS LTD,UNITS 12 - 13,LAURENCEKIRK BUSINESS PARK,1,1,0,1,1,1,"_,01561 377900",AB30 1EY,V100743,LAURENCEKIRK,MEARNS MOTORS LTD,{'$oid': '6413ca51080004ea81cb76dd'},56.83770269999999,-2.461656000000001,Point
ROSEHILL GARAGE,94 HILTON DRIVE,,0,0,0,1,0,0,"_,01224276300",AB24 4NL,4005AN,ABERDEEN,MURISON COMMERCIALS LIMITED,{'$oid': '6413ca51080004ea81cb76de'},57.1650275,-2.1282264,Point
CRAIGOUR ROAD,TORPHINS,,0,0,0,1,0,0,"_,01339 882326",AB31 4UE,96176,BANCHORY,STATION GARAGE,{'$oid': '6413ca51080004ea81cb76df'},57.1035467,-2.6199932,Point
EASTMAINS FARMHOUSE,DRUMOAK,BANCHORY,0,0,0,1,0,1,"_,01330 811887",AB31 5AN,S001828,ABERDEEN,EASTMAINS GARAGE LIMITED,{'$oid': '6413ca51080004ea81cb76e0'},57.092951,-2.3185655,Point
SILVERBANK,NORTH DEESIDE ROAD,,0,0,0,1,1,1,"_,01330824444",AB31 5PY,96190,BANCHORY,CALDWELL & DEMPSTER,{'$oid': '6413ca51080004ea81cb76e1'},57.05736169999999,-2.4701839,Point
TILLYBRAKE ROAD,,,0,0,0,1,0,0,"_,01330 824 848",AB31 5UN,S003563,BANCHORY,BANCHORY CAR SALES,{'$oid': '6413ca51080004ea81cb76e2'},57.056756,-2.4856762,Point
"UNIT 3A, SILVERBANK",NORTH DEESIDE ROAD,BANCHORY,0,0,0,1,0,0,"_,01330 820 008",AB31 5YR,96769,ABERDEENSHIRE,C & D AUTOS LIMITED,{'$oid': '6413ca51080004ea81cb76e3'},57.0564305,-2.4777968,Point
UNIT 1,AUTOMOTIVE CENTRE,WEST NORTH STREET,0,0,0,1,0,0,"_,01224 622550",AB24 5AR,8366AE,ABERDEEN,ROSEBANK GARAGE,{'$oid': '6413ca51080004ea81cb76e4'},57.1523369,-2.0971029,Point
38 POWIS TERRACE,KITTYBREWSTER,,0,0,0,1,1,1,"_,01224489312",AB25 3RF,96048,ABERDEEN,ABERDEEN CITY COUNCIL,{'$oid': '6413ca51080004ea81cb76e5'},57.1615984,-2.1142364,Point
23 MERKLAND ROAD EAST,,,0,0,0,1,0,0,"_,01224626979",AB24 5PY,2499B6,ABERDEEN,PITTODRIE CAR STADIUM,{'$oid': '6413ca51080004ea81cb76e6'},57.1591337,-2.0922382,Point
17 ST CLAIR STREET,,,0,0,0,1,0,0,"_,01224 588311",AB24 5AL,S000138,ABERDEEN,HALFORDS AUTOCENTRE,{'$oid': '6413ca51080004ea81cb76e7'},57.1532196,-2.0967609,Point
10 JOPPS LANE,ABERDEEN,,1,1,0,0,0,0,"_,01224 636194",AB25 1BR,V108714,GRAMPIAN,JOPPS MOTORCYCLES LTD,{'$oid': '6413ca51080004ea81cb76e8'},57.1509328,-2.1017185,Point
5 - 7 ST CLAIR STREET,,,0,0,0,1,0,1,"_,01224630103",AB24 5TT,S000259,ABERDEEN,HALFORDS AUTOCENTRE,{'$oid': '6413ca51080004ea81cb76e9'},57.153099,-2.0964854,Point
DEE GARAGE,UNIT 2 NORTH DEESIDE ROAD,,0,0,0,1,0,0,"_,01330 826054",AB31 5YR,V100439,BANCHORY,DEE GARAGE,{'$oid': '6413ca51080004ea81cb76ea'},57.0543351,-2.4803179,Point
MOSSCROFT AVENUE,WESTHILL INDUSTRIAL ESTATE,WESTHILL,0,0,0,1,0,1,"_,01224 742336",AB32 6EQ,V106517,ABERDEEN,Westhill Garage Ltd,{'$oid': '6413ca51080004ea81cb76eb'},57.1489384,-2.2920056,Point
WESTHILL CARS LIMITED,WESTHILL,,0,0,0,1,0,0,"_,01224 744411",AB32 6TQ,V109342,ABERDEEN,WESTHILL CARS LIMITED,{'$oid': '6413ca51080004ea81cb76ec'},57.148906,-2.28108,Point
ENTERPRISE DRIVE,WESTHILL INDUSTRIAL ESTATE,WESTHILL,0,0,0,1,0,0,"_,01224 748167",AB32 6TQ,V102487,ABERDEEN,KINNONS GARAGE,{'$oid': '6413ca51080004ea81cb76ed'},57.1486357,-2.2853539,Point
BROOMFIELD,DESS,ABOYNE,0,0,0,1,0,1,"_,07774884233",AB34 5BJ,S001772,ABERDEENSHIRE,JOHN MCCOMBIE MOTOR REPAIRS,{'$oid': '6413ca51080004ea81cb76ee'},57.08153780000001,-2.7327087,Point
VICTORIA GARAGE,VICTORIA ROAD,,0,0,1,1,0,0,"_,01339755525",AB35 5QQ,96130,BALLATER,J PRINGLE,{'$oid': '6413ca51080004ea81cb76ef'},57.0475429,-3.0414912,Point
"BLOCK 2, OLD STATION YARD",ALFORD,,0,0,0,1,0,0,"_,07979 871 834",AB33 8FD,S002014,ABERDEENSHIRE,ALFORD AUTO STATION,{'$oid': '6413ca51080004ea81cb76f0'},57.2313358,-2.6958072,Point
TULLICH ROAD,,,0,0,0,1,0,0,"_,01339755323",AB35 5SH,98281,BALLATER,RIVERSIDE GARAGE,{'$oid': '6413ca51080004ea81cb76f1'},57.0489223,-3.0355915,Point
SMITHFIELD GARAGE,LOGIE COLDSTONE,ABOYNE,0,0,0,1,0,1,"_,01339 881404",AB34 5PQ,S003499,ABERDEENSHIRE,SMITHS GARAGE,{'$oid': '6413ca51080004ea81cb76f2'},57.127508,-2.933118,Point
OLD SAWMILL,ROUGHPARK,STRATHDON,0,0,1,1,0,0,"_,01975 651735",AB36 8XS,V110082,ABERDEENSHIRE,FARM & MECHANICAL SERVICES,{'$oid': '6413ca51080004ea81cb76f3'},57.194435,-3.0932529,Point
19 HIGH STREET,,,0,0,0,1,1,1,"_,01340871505",AB38 9QJ,97142,ABERLOUR ON SPEY,FRANK OGG & SON LTD,{'$oid': '6413ca51080004ea81cb76f4'},57.47313020000001,-3.2191816,Point
44 HIGH STREET,,,0,0,0,1,0,0,"_,01340831555",AB38 7AY,96365,ROTHES,CASTLEHILL SERVICES,{'$oid': '6413ca51080004ea81cb76f5'},57.5252919,-3.2076872,Point
BALLATER ROAD,,,0,0,0,1,0,0,"_,01339741210",AB35 5YQ,9478A2,BRAEMAR,BRAEMAR SERVICE STATION,{'$oid': '6413ca51080004ea81cb76f6'},57.0064696,-3.3979439,Point
THE GARAGE,MAGGIEKNOCKATER,,0,0,0,1,0,0,"_,01542860398/325",AB38 9RA,97375,CRAIGELLACHIE,MCLEAN'S GARAGE LTD,{'$oid': '6413ca51080004ea81cb76f7'},57.5003897,-3.136666,Point
110 BARCLAY STREET,,,0,0,0,1,0,0,"_,01569765116",AB39 2AP,5254BL,STONEHAVEN,KWIK FIT,{'$oid': '6413ca51080004ea81cb76f8'},56.9671855,-2.2098839,Point
UNIT 20,SPURRYHILLOCK INDUSTRIAL ESTATE,STONEHAVEN,0,0,0,1,0,0,"_,01569764333",AB39 2NH,S003690,ABERDEENSHIRE,A & I AUTOS,{'$oid': '6413ca51080004ea81cb76f9'},56.9638306,-2.2350309,Point
BOGWELL LANE,,,0,0,0,1,0,0,"_,01569762091",AB39 2NN,4715AQ,STONEHAVEN,TOUGH & JOHNSTON,{'$oid': '6413ca51080004ea81cb76fa'},56.9612188,-2.2081584,Point
LOANHEAD CROFT,NEWBURGH,,0,0,0,1,0,0,"_,01358789395",AB41 6AN,96600,ELLON,NEWBURGH MOTORS,{'$oid': '6413ca51080004ea81cb76fb'},57.31709240000001,-2.0152083,Point
GLENKINDIE,,,1,1,0,1,0,0,"_,01975641230",AB33 8RE,98232,ALFORD,CENTRAL GARAGE,{'$oid': '6413ca51080004ea81cb76fc'},57.214441,-2.936651,Point
DINNESWOOD,TARVES,,0,0,0,1,0,0,"_,01651 851833",AB41 7LR,1459BM,ELLON,DINNESWOOD GARAGE,{'$oid': '6413ca51080004ea81cb76fd'},57.36513329999999,-2.2046665,Point
HINDWELLS,FETTERESSO,,0,0,0,1,0,0,"_,01569766766",AB39 3UT,96828,STONEHAVEN,FIRSTDRIVE CARS,{'$oid': '6413ca51080004ea81cb76fe'},56.9674614,-2.2820419,Point
NETHERMILL OF TILLYHILT,TARVES,,0,0,0,1,1,1,"_,01651 851133",AB41 7NT,S003671,ABERDEENSHIRE,MASSIE MECHANICAL SERVICES LTD,{'$oid': '6413ca51080004ea81cb76ff'},57.3763217,-2.2434719,Point
OVERTON GARAGE,AUCHLEUCHRIES,,0,0,0,1,0,0,"_,01358711213",AB41 8EP,98234,ELLON,G & Y S KELLY,{'$oid': '6413ca51080004ea81cb7700'},57.4057775,-2.0466455,Point
LONENWELL GARAGE,,,0,0,0,1,0,0,"_,019755 62215",AB33 8ED,V101967,ALFORD,K AND A ANDERSON,{'$oid': '6413ca51080004ea81cb7701'},57.2313961,-2.6884369,Point
75 STATION ROAD,ELLON,,0,0,0,1,0,0,"_,01358 721666",AB41 9AR,V108114,ABERDEENSHIRE,ELLON CAR CLINIC LTD,{'$oid': '6413ca51080004ea81cb7702'},57.3642976,-2.0769551,Point
UNIT 1 ENTERPRISE DRIVE,WESTHILL,,0,0,0,1,0,0,"_,01224478777",AB32 6TQ,S002396,ABERDEENSHIRE,DJ AUTOMOTIVE ENGINEERING LIMITED,{'$oid': '6413ca51080004ea81cb7703'},57.1481424,-2.2862154,Point
DINNET,ABOYNE,,1,1,1,1,0,1,"_,(01339)880538",AB34 5JY,V104491,ABOYNE,DINNET GARAGE LIMITED,{'$oid': '6413ca51080004ea81cb7704'},57.077339,-2.8925372,Point
MAIN ROAD,,,0,0,1,1,0,0,"_,01339886440",AB34 5HR,98176,ABOYNE,Aboyne Service Station Ltd,{'$oid': '6413ca51080004ea81cb7705'},57.0788592,-2.7674799,Point
STONEHAVEN REPAIR DEPOT,SPURRYHILLOCK IND ESTATE,,0,0,0,1,0,1,"_,01569763274",AB39 2NH,9341B3,STONEHAVEN,ABERDEENSHIRE COUNCIL,{'$oid': '6413ca51080004ea81cb7706'},56.9638306,-2.2350309,Point
TIPPERTY INDUSTRIAL CENTRE,,TIPPERTY,0,0,0,1,0,0,"_,01358 729585",AB41 8LZ,S002199,ELLON,MB GARAGE SERVICES & MOTORSPORT LIMITED,{'$oid': '6413ca51080004ea81cb7707'},57.33196659999999,-2.0531001,Point
YTHANBANK,,,0,0,0,1,0,0,"_,01358761297",AB41 7TE,1ALA03,ELLON,MICHAELMUIR GARAGE,{'$oid': '6413ca51080004ea81cb7708'},57.3958355,-2.1577963,Point
HOSPITAL ROAD,ELLON,,1,1,0,0,0,0,"_,01358 722 112",AB41 9AW,S001232,ABERDEENSHIRE,CROFT AUTOTECH LTD,{'$oid': '6413ca51080004ea81cb7709'},57.3695427,-2.0839905,Point
COUNTY GARAGE ELLON LTD,HOSPITAL ROAD,,0,0,0,1,0,0,"_,01358 720206",AB41 9AW,V100360,ELLON,CROFT AUTOTECH LTD,{'$oid': '6413ca51080004ea81cb770a'},57.36697119999999,-2.0850191,Point
HOSPITAL ROAD,,,0,0,0,1,0,0,"_,01358720030",AB41 9AW,96847,ELLON,KAIRDSON TYRES LTD,{'$oid': '6413ca51080004ea81cb770b'},57.3695427,-2.0839905,Point
"UNIT 2, PREMIER INDUSTRIAL UNITS",CASTLE STREET,ELLON,0,0,0,1,1,1,"_,01358 721220",AB41 9RF,V106636,ABERDEENSHIRE,PIT LANE (ELLON) LTD,{'$oid': '6413ca51080004ea81cb770c'},57.3675725,-2.0567927,Point
UNIT 1,CASTLE ROAD INDUSTRIAL ESTATE,,0,0,0,1,0,0,"_,01358725080",AB41 9RF,1ALP14,ELLON,CASTLEPARK GARAGE,{'$oid': '6413ca51080004ea81cb770d'},57.36510790000001,-2.0692055,Point
AULTON ROAD,CRUDEN BAY,,0,0,0,1,0,0,"_,01779 812 060",AB42 0NJ,97279,PETERHEAD,CRUDEN BAY GARAGE LTD,{'$oid': '6413ca51080004ea81cb770e'},57.4160268,-1.8558207,Point
HATTON,PETERHEAD,,0,0,0,1,0,0,"_,01779 841984",AB42 0TH,V106795,ABERDEENSHIRE,HATTON GARAGE LTD,{'$oid': '6413ca51080004ea81cb770f'},57.41047529999999,-1.946655,Point
13 BLACKHOUSE CIRCLE,BLACKHOUSE INDUSTRIAL ESTATE,PETERHEAD,0,0,0,1,0,0,"_,01779 470 053",AB42 1BN,S000784,ABERDEENSHIRE,CAMPBELLS GARAGE LTD,{'$oid': '6413ca51080004ea81cb7710'},57.51366099999999,-1.810232,Point
BLACKHOUSE INDUSTRIAL ESTATE,,,0,0,0,1,0,1,"_,01779479777",AB42 1BN,96236,PETERHEAD,GILLANDERS MOTORS LIMITED,{'$oid': '6413ca51080004ea81cb7711'},57.5131824,-1.8073879,Point
20-28 YORK STREET,,,0,0,0,1,0,0,"_,01779 479191",AB42 1RS,S004274,PETERHEAD,HAWCO,{'$oid': '6413ca51080004ea81cb7712'},57.5059219,-1.7845262,Point
1 WILSON STREET,,,0,0,0,1,0,1,"_,01779479669",AB42 1UD,1ALC76,PETERHEAD,MASSON MOTORS LTD,{'$oid': '6413ca51080004ea81cb7713'},57.51092019999999,-1.7782135,Point
STATION ROAD,,,0,0,0,1,0,0,"_,01779477084",AB42 1ST,95988,PETERHEAD,WESTFIELD MOTORS (PETERHEAD) LIMITED,{'$oid': '6413ca51080004ea81cb7714'},57.5082572,-1.7913294,Point
15 UGIE STREET,PETERHEAD,,1,1,0,1,0,1,"_,01779 481 200",AB42 1US,S001338,ABERDEENSHIRE,CARTECH PETERHEAD LTD,{'$oid': '6413ca51080004ea81cb7715'},57.51055539999999,-1.7824753,Point
40 WINDMILL STREET,,,0,0,0,1,0,0,"_,01779474444",AB42 1UL,1ALW43,PETERHEAD,MAC TYRES LIMITED,{'$oid': '6413ca51080004ea81cb7716'},57.5084727,-1.7808438,Point
SOUTH ROAD,,,0,0,0,1,0,1,"_,01779475171",AB42 2XX,96682,PETERHEAD,PETERHEAD MOTORS LTD,{'$oid': '6413ca51080004ea81cb7717'},57.4992652,-1.7951029,Point
HARBOUR STREET,BODDAM,,0,0,0,1,0,0,"_,01779472336",AB42 3AU,96162,PETERHEAD,PARK GARAGE,{'$oid': '6413ca51080004ea81cb7718'},57.473557,-1.7784657,Point
M & K MOTORS,BUILDING 9D,BUCHAN BRAES,0,0,0,1,0,1,"_,01779491300",AB42 3AR,V108872,BODDAM,M & K MOTORS,{'$oid': '6413ca51080004ea81cb7719'},57.4697142,-1.7878747,Point
DALES INDUSTRIAL ESTATE,,,0,0,0,1,0,0,"_,01779474849",AB42 3JL,7013B3,PETERHEAD,ARNOLD CLARK,{'$oid': '6413ca51080004ea81cb771a'},57.48726360000001,-1.8060255,Point
DAMHEAD WAY,,,0,0,0,1,1,1,"_,01779 475121",AB42 3GY,V109243,PETERHEAD,ALEX AIKEN & SON LTD,{'$oid': '6413ca51080004ea81cb771b'},57.4898268,-1.8145304,Point
PARKHILL FARM,BLACKHILLS,PETERHEAD,0,0,0,1,0,0,"_,01779480430",AB42 3LE,V105332,PETERHEAD,BT AUTOS,{'$oid': '6413ca51080004ea81cb771c'},57.50812299999999,-1.784066,Point
11 LINKS ROAD,ST FERGUS,,1,1,1,1,0,0,"_,01779838258",AB42 3PD,97524,PETERHEAD,BENNIE MOTORS LTD,{'$oid': '6413ca51080004ea81cb771d'},57.5584965,-1.8367876,Point
WEST ROAD,,,1,1,0,1,1,1,"_,01779478777",AB42 4JE,0633B3,PETERHEAD,WEST ROAD CUSTOMS LIMITED,{'$oid': '6413ca51080004ea81cb771e'},57.5069683,-1.8007047,Point
MINTLAW,,,1,1,1,1,0,0,"_,01771622468",AB42 4JL,95877,PETERHEAD,STATION GARAGE,{'$oid': '6413ca51080004ea81cb771f'},57.5265208,-2.0231948,Point
VICTORIA ROAD,MAUD,,0,0,0,1,0,0,"_,01771613234",AB42 4NP,1622B2,PETERHEAD,VICTORIA GARAGE (MAUD) LIMITED,{'$oid': '6413ca51080004ea81cb7720'},57.52146010000001,-2.1314433,Point
UNIT 1,DEER ROAD WEST,MAUD,0,0,0,1,1,1,"_,01771 613 750",AB42 4PY,S003103,SCOTLAND,STRACHANS GARAGE LIMITED,{'$oid': '6413ca51080004ea81cb7721'},57.5206901,-2.1338047,Point
55 MAIN STREET,LONGSIDE,,0,0,0,1,0,0,"_,01779821226",AB42 4XJ,98400,PETERHEAD,DUTHIE MOTORS LTD,{'$oid': '6413ca51080004ea81cb7722'},57.51842190000001,-1.942997,Point
MAIN STREET,LONGSIDE,,0,0,0,1,0,0,"_,01779821328",AB42 4XR,3215BZ,PETERHEAD,CAIRNGALL MOTOR SERVICES,{'$oid': '6413ca51080004ea81cb7723'},57.5158955,-1.9300096,Point
19 BURNETT STREET,STUARTFIELD,,0,0,0,1,0,0,"_,01771 624 303",AB42 5DN,S000424,ABERDEENSHIRE,MGB MOTORS LTD,{'$oid': '6413ca51080004ea81cb7724'},57.5042092,-2.0463992,Point
MILE END,DRUM,MAUD,0,0,0,1,0,0,"_,01771644275",AB42 5RH,0385BA,PETERHEAD,MILE END MOTORS LTD,{'$oid': '6413ca51080004ea81cb7725'},57.50812299999999,-1.784066,Point
MINTLAW REPAIR DEPOT,MINTLAW,,0,0,0,1,1,1,"_,01771676650",AB42 8EE,6099BA,PETERHEAD,ABERDEENSHIRE COUNCIL,{'$oid': '6413ca51080004ea81cb7726'},57.524395,-2.001277,Point
13A HIGH STREET,NEW PITSLIGO,,0,0,0,1,0,0,"_,01771653613",AB43 6ND,7724B8,FRASERBURGH,ROBERTSON MOTORS,{'$oid': '6413ca51080004ea81cb7727'},57.5974854,-2.2010707,Point
SKILLYMARNO,STRICHEN,,0,0,1,1,0,0,"_,07967013860",AB43 6TD,V110313,FRASERBURGH,BRIAN GILL,{'$oid': '6413ca51080004ea81cb7728'},57.5632718,-2.0738408,Point
MEMSIE,,,0,0,0,1,0,0,"_,01346541221",AB43 7AN,96705,FRASERBURGH,MEMSIE GARAGE LIMITED,{'$oid': '6413ca51080004ea81cb7729'},57.6518081,-2.0502344,Point
NETHERTON OF PITTENDRUM,ST MAGNUS ROAD,SANDHAVEN,0,0,0,1,0,1,"_,01346 378 005",AB43 7EN,S000921,FRASERBURGH,JRC MOTOR ENGINEERS,{'$oid': '6413ca51080004ea81cb772a'},57.6922903,-2.0666879,Point
MAIN ROAD,CRIMOND,FRASERBURGH,0,0,0,1,0,0,"_,01346 532403",AB43 8QJ,S000069,ABERDEENSHIRE,CRIMOND GARAGE LTD,{'$oid': '6413ca51080004ea81cb772b'},57.6015506,-1.9134652,Point
SOUTH ROAD,,,0,0,0,1,0,1,"_,01346514700",AB43 8TJ,0079B3,FRASERBURGH,MURRAY MOTORS,{'$oid': '6413ca51080004ea81cb772c'},57.6832988,-2.0049144,Point
CRAIGLANDS,LONMAY,,1,1,0,1,0,1,"_,07732212872",AB43 8XS,S003941,FRASERBURGH,CRAIGLAND SERVICES,{'$oid': '6413ca51080004ea81cb772d'},57.63736439999999,-1.961418,Point
1-3 NORTH STREET,,,0,0,0,1,0,0,"_,01346518721",AB43 9DJ,95954,FRASERBURGH,RUXTONS GARAGE LTD,{'$oid': '6413ca51080004ea81cb772e'},57.6949508,-2.0067635,Point
ALBERT STREET,,,0,0,0,1,0,0,"_,01346  513029",AB43 9JL,V101228,FRASERBURGH,SMITHS GARAGE (2020) LTD,{'$oid': '6413ca51080004ea81cb772f'},57.6940552,-2.0129118,Point
KESSOCK SERVICE CENTRE,SOUTH HARBOUR ROAD,,1,1,0,1,1,1,"_,01346510066",AB43 9TA,S003518,FRASERBURGH,KESSOCK SERVICE STATION LIMITED,{'$oid': '6413ca51080004ea81cb7730'},57.6825147,-2.0055924,Point
OLD GAMRIE INDUSTRIAL ESTATE,,,0,0,0,1,0,1,"_,01261 833333",AB44 1GD,V107148,MACDUFF,VICTORIA GARAGE,{'$oid': '6413ca51080004ea81cb7731'},57.6669209,-2.4818815,Point
9 OLD MARKET PLACE,BANFF,,0,0,0,1,0,0,"_,01261815750",AB45 1GE,96228,ABERDEENSHIRE,BANFF TYRE SERVICES,{'$oid': '6413ca51080004ea81cb7732'},57.6649213,-2.5182777,Point
THE GARAGE,MID STREET,CORNHILL,0,0,0,1,1,1,"_,01466751437",AB45 2EH,97171,BANFF,EWENS OF CORNHILL LTD,{'$oid': '6413ca51080004ea81cb7733'},57.6108537,-2.6987672,Point
BRIDGEND,,BANFF,0,0,0,1,0,0,"_,01261 812 393",AB45 3JS,S000742,ABERDEENSHIRE,BRIDGEND GARAGE (BANFF) LTD,{'$oid': '6413ca51080004ea81cb7734'},57.66248090000001,-2.5108149,Point
MARTIN STUART,UNIT 4,INVERBOYNDIE INDUSTRIAL ESTATE,0,0,0,1,0,0,"_,01261812262",AB45 2JJ,V100356,BANFF,MARTIN STUART,{'$oid': '6413ca51080004ea81cb7735'},57.6684306,-2.5565578,Point
UNIT 3,COLPY WAY INDUSTRIAL ESTATE,OLDMELDRUM,1,1,0,0,0,0,"_,07758779989",AB51 0BZ,V107993,ABERDEENSHIRE,CRAIGSTON TYRES LTD,{'$oid': '6413ca51080004ea81cb7736'},57.33484379999999,-2.3324432,Point
UNIT 5 COLPY WAY,COLPY INDUSTRIAL ESTATE,,0,0,0,1,0,0,"_,01651 872 758",AB51 0BZ,V107768,OLD MELDRUM,	WALKER MOTORS OLDMELDRUM LTD,{'$oid': '6413ca51080004ea81cb7737'},57.3344415,-2.3321935,Point
LETHENTY,,,0,0,0,1,0,0,"_,01467622202",AB51 0HQ,96206,INVERURIE,JIM KING AUTOTUNE,{'$oid': '6413ca51080004ea81cb7738'},57.3119162,-2.3840621,Point
"UNIT 2, CRAIGEARN BUSINESS PARK",MORRISON WAY,KINTORE,0,0,0,1,0,1,"_,01467 634 000",AB51 0TH,S003331,INVERURIE,JIM REID VEHICLE SALES & SERVICE,{'$oid': '6413ca51080004ea81cb7739'},57.22417739999999,-2.3450638,Point
CALEDONIAN HOUSE,MIDMILL,,0,0,0,1,0,1,"_,01224723905",AB51 0UY,S002775,KINTORE,CALEDONIAN LOGISTICS LTD,{'$oid': '6413ca51080004ea81cb773a'},57.2264596,-2.3459631,Point
BRIDGEFIELD,MIDMILL,KINTORE,0,0,0,1,0,1,"_,01467 634890",AB51 0XB,V109358,ABERDEENSHIRE,C & M MCDONALD,{'$oid': '6413ca51080004ea81cb773b'},57.2268804,-2.3383069,Point
PREMIER COACHES (KINTORE) LTD,HILL OF COTTOWN,,1,1,0,1,1,1,"_,01467642409",AB51 0YA,V108206,KINTORE,PREMIER COACHES (KINTORE) LTD,{'$oid': '6413ca51080004ea81cb773c'},57.226361,-2.3957662,Point
OLD MELDRUM ROAD,,,1,1,0,1,1,1,"_,01467 620630",AB51 0ZJ,V106951,INVERURIE,WEST HIGH STREET GARAGE LTD,{'$oid': '6413ca51080004ea81cb773d'},57.2872764,-2.3702705,Point
56 NORTHERN ROAD,,,1,1,0,1,0,1,"_,01467632259",AB51 0YF,98237,KINTORE,STATION GARAGE (KINTORE) LTD,{'$oid': '6413ca51080004ea81cb773e'},57.2402588,-2.3491699,Point
ELPHINSTONE ROAD,PORT ELPHINSTONE,,0,0,0,1,0,0,"_,01467 629926",AB51 3RN,0670A4,INVERURIE,LAWRENCE OF KEMNAY,{'$oid': '6413ca51080004ea81cb773f'},57.2699746,-2.3693425,Point
BURGHMUIR WAY,,,0,0,0,1,0,0,"_,01467624500",AB51 4FT,8583BR,INVERURIE,I & K MOTORS LTD,{'$oid': '6413ca51080004ea81cb7740'},57.2861267,-2.3949615,Point
"UNIT 31, HARLAW WAY",HARLAW INDUSTRIAL ESTAE,INVERURIE,0,0,0,1,0,0,"_,01467 629 204",AB51 4SG,S001453,ABERDEENSHIRE,AUTOMASTERS INVERURIE LTD,{'$oid': '6413ca51080004ea81cb7741'},57.2920701,-2.3828409,Point
HARLAW REPAIR DEPOT,HARLAW ROAD,INVERURIE,0,0,0,1,0,1,"_,01467536343",AB51 4TE,6104A3,ABERDEEN,ABERDEENSHIRE COUNCIL,{'$oid': '6413ca51080004ea81cb7742'},57.2926292,-2.3856864,Point
WARTLE,,,0,0,0,1,0,0,"_,01467 671455",AB51 5AX,96087,INVERURIE,DRUM GARAGE,{'$oid': '6413ca51080004ea81cb7743'},57.374712,-2.448911,Point
19A CAMIESTONE ROAD,THAINSTONE BUSINESS PARK,,0,0,0,1,1,1,"_,01467 624444",AB51 5GT,V101739,INVERURIE,DIACK AUTOS,{'$oid': '6413ca51080004ea81cb7744'},57.2545513,-2.3779998,Point
DONVIEW GARAGE,STATION ROAD,KEMNAY,0,0,0,1,0,0,"_,01467642510",AB51 5RB,96660,INVERURIE,BRIAN DOWNIE CAR SALES,{'$oid': '6413ca51080004ea81cb7745'},57.2326638,-2.4477383,Point
WEST ACHATH,CASTLE FRASER,,0,0,0,1,0,1,"_,01330 860 278",AB51 7LJ,S001780,INVERURIE,KJF GARAGE SERVICES,{'$oid': '6413ca51080004ea81cb7746'},57.2020949,-2.4674732,Point
KEMNAY ROAD,INVERURIE,,0,0,0,1,0,0,"_,01467 670 101",AB51 5NU,S000953,ABERDEENSHIRE,AUTO CENTRE INVERURIE LTD,{'$oid': '6413ca51080004ea81cb7747'},57.2700865,-2.370946,Point
THE GARAGE,MAIN STREET,ROTHIENORMAN,0,0,0,1,0,0,"_,01651 821891",AB51 8UD,V109111,INVERURIE,THE GARAGE,{'$oid': '6413ca51080004ea81cb7748'},57.4113471,-2.4655321,Point
UNIT 1,INSCH BUSINESS PARK,MUIRHEAD HOUSE,0,0,0,1,0,1,"_,01464 829 319",AB52 6TA,S001902,INSCH,AME VEHICLE SERVICE & REPAIR,{'$oid': '6413ca51080004ea81cb7749'},57.35044180000001,-2.6092089,Point
SOUTH ROAD,,,0,0,0,1,0,0,"_,01464820876",AB52 6XF,96226,INSCH,A M VEHICLE REPAIRS,{'$oid': '6413ca51080004ea81cb774a'},57.3369897,-2.614346,Point
RITCHIE'S GARAGE,BARDSTREEN,COLPY,0,0,0,1,0,0,"_,01464841286",AB52 6TR,V108139,INSCH,RITCHIE'S GARAGE,{'$oid': '6413ca51080004ea81cb774b'},57.379811,-2.5975994,Point
PITMACHIE,INSCH,,0,0,0,1,0,0,"_,01464851233",AB52 6RX,9088BM,INVERURIE,PITMACHIE GARAGE LIMITED,{'$oid': '6413ca51080004ea81cb774c'},57.343978,-2.548177,Point
CROWN STREET,,,0,0,0,1,0,0,"_,01888563459",AB53 4DN,97805,TURRIFF,CENTRAL ENGINEERS,{'$oid': '6413ca51080004ea81cb774d'},57.539325,-2.4561793,Point
44 BALMELLIE STREET,,,0,0,0,1,0,0,"_,01888 568422",AB53 4DU,1881BW,TURRIFF,DAVIDSON'S GARAGE,{'$oid': '6413ca51080004ea81cb774e'},57.5381382,-2.456572,Point
FORDYCE TERRACE,NEW DEER,,0,0,1,1,0,0,"_,01771644280",AB53 6TD,97060,TURRIFF,NEWLANDS GARAGE,{'$oid': '6413ca51080004ea81cb774f'},57.5141518,-2.1858829,Point
BOGS OF PLAIDY,TURRIFF,,0,0,0,1,0,0,"_,01888 568859",AB53 4NU,V106230,ABERDEENSHIRE,PLAIDY MOTORS LTD,{'$oid': '6413ca51080004ea81cb7750'},57.5803457,-2.4714356,Point
OLD TOLL ROAD,,,1,1,1,1,1,1,"_,01466 792537",AB54 6JA,7696B0,HUNTLY,HUNTLY VEHICLE CARE CENTRE LTD,{'$oid': '6413ca51080004ea81cb7751'},57.4422327,-2.7752796,Point
CHELSEA HOUSE,HUNTLY,,0,0,0,1,0,0,"_,01466799601",AB54 6JD,S001600,ABERDEENSHIRE,WS INSPECTION SERVICES LIMITED,{'$oid': '6413ca51080004ea81cb7752'},57.4396498,-2.7661755,Point
CROSSROADS GARAGE,,ROTHIEMAY,0,0,0,1,0,1,"_,07584 244537",AB54 7JT,S004124,HUNTLY,CONNOR WILSON,{'$oid': '6413ca51080004ea81cb7753'},57.445936,-2.7878059,Point
KNOCK,,,0,0,0,1,0,0,"_,01466771245",AB54 7LL,95888,HUNTLY,WOODSIDE GARAGE,{'$oid': '6413ca51080004ea81cb7754'},57.559776,-2.7529364,Point
46 MAIN STREET,,,0,0,0,1,0,1,"_,01466780202",AB54 7SY,96319,ABERCHIRDER,CHRISTOPHER MACLENNAN,{'$oid': '6413ca51080004ea81cb7755'},57.5595326,-2.6301474,Point
CAMERON AUTOTECH LTD,23 HIGH STREET,CUMINESTOWN,1,1,1,1,0,1,"_,01888 545230",AB53 5YD,V100382,TURRIFF,CAMERON AUTOTECH LTD,{'$oid': '6413ca51080004ea81cb7756'},57.5421718,-2.3311189,Point
81 GORDON STREET,,,0,0,0,1,0,0,"_,01466 792489",AB54 8ES,V101368,HUNTLY,J & J WATT,{'$oid': '6413ca51080004ea81cb7757'},57.4452458,-2.7896131,Point
"UNIT 13, STEVEN ROAD",,,0,0,0,1,0,0,"_,01466 793768",AB54 8SX,S004248,HUNTLY,MB MOTORS HUNTLY LIMITED,{'$oid': '6413ca51080004ea81cb7758'},57.44536729999999,-2.7998191,Point
LUMSDEN GARAGE,MAIN STREET,LUMSDEN,0,0,0,1,0,0,"_,01464 861 737",AB54 4JP,97952,HUNTLY,FM AUTO REPAIRS,{'$oid': '6413ca51080004ea81cb7759'},57.28466659999999,-2.874725,Point
MCLARENS GARAGE,127 MAIN STREET,,1,1,0,1,0,0,"_,01466780211",AB54 7TB,97178,ABERCHIRDER,MCLARENS GARAGE,{'$oid': '6413ca51080004ea81cb775a'},57.5617485,-2.6257801,Point
SIMS ROAD EAST,RHYNIE,,0,0,0,1,0,0,"_,01464861053",AB54 4GB,V105788,HUNTLY,RHYNIE CAR CENTRE,{'$oid': '6413ca51080004ea81cb775b'},57.3324336,-2.8328801,Point
MILTON GARAGE,MILTON OF CAIRNBORROW,,0,0,0,1,0,0,"_,01466792363",AB54 4UT,97402,HUNTLY,E & A ROBSON,{'$oid': '6413ca51080004ea81cb775c'},57.4540931,-2.8753347,Point
WEST END GARAGE,DEVERON ROAD,,0,0,0,1,0,0,"_,01466793151",AB54 4UL,8048A1,HUNTLY,HUNTLY MOTORS,{'$oid': '6413ca51080004ea81cb775d'},57.4499209,-2.7983779,Point
THE GARAGE,FIFE STREET,,0,0,0,1,0,0,"_,01340820234",AB55 4AL,97814,DUFFTOWN,JOHNSTON & STUART,{'$oid': '6413ca51080004ea81cb775e'},57.4448586,-3.1261972,Point
UNIT 30,STEVEN ROAD,,0,0,0,1,0,0,"_,01466 799639",AB54 8SX,V109529,HUNTLY,HUNTLY AUTO SERVICES,{'$oid': '6413ca51080004ea81cb775f'},57.4453626,-2.8003183,Point
55/67 REGENT STREET,,,0,0,0,1,0,0,"_,01542882167",AB55 5EU,97016,KEITH,H MUTCH,{'$oid': '6413ca51080004ea81cb7760'},57.54492320000001,-2.961297,Point
NEWMILL ROAD INDUSTRIAL ESTATE,,,1,1,1,1,1,1,"_,01542 882735",AB55 5GB,S000576,KEITH,Keith Motor Co,{'$oid': '6413ca51080004ea81cb7761'},57.549938,-2.953667,Point
UNIT 4 WESTERTON ROAD NORTH,,,0,0,0,1,0,0,"_,01542 886127",AB55 5FL,S004142,KEITH,GCH SERVICES,{'$oid': '6413ca51080004ea81cb7762'},57.5420385,-2.942413,Point
80-82 MAIN STREET,NEWMILL,,0,0,0,1,0,0,"_,01542882121",AB55 6TS,1ALH91,KEITH,NEWMILL GARAGE,{'$oid': '6413ca51080004ea81cb7763'},57.55985510000001,-2.9433808,Point
FREUCHNY LANE,,,0,0,0,1,0,0,"_,01542833018",AB56 1BF,3969AP,BUCKIE,HIGHLAND GARAGE,{'$oid': '6413ca51080004ea81cb7764'},57.6741516,-2.9608144,Point
WEST CATHCART STREET,,,0,0,0,1,0,0,"_,01542832500",AB56 1PN,3167BG,BUCKIE,CATHCART GARAGE,{'$oid': '6413ca51080004ea81cb7765'},57.6748314,-2.9653307,Point
MCLARENS BRAE,BUCKIE,BANFFSHIRE,1,1,0,1,0,0,"_,01542833099",AB56 1TS,6935BK,BUCKIE,TRED RITE TYRES LTD,{'$oid': '6413ca51080004ea81cb7766'},57.6792951,-2.9527354,Point
119 HIGH STREET,,,0,0,0,1,0,0,"_,01542833050",AB56 4DX,97895,BUCKIE,REGENCY CAR SALES LIMITED,{'$oid': '6413ca51080004ea81cb7767'},57.66862630000001,-2.9569221,Point
REAR OF 117 LONDON ROAD,,,0,0,0,1,0,0,"_,01727 855096",AL1 1LR,17660,ST ALBANS,JOHN GORDON MOTORS LTD,{'$oid': '6413ca51080004ea81cb7768'},51.7479391,-0.3313767,Point
HIGH STREET,,,0,0,0,1,0,0,"_,01542833977",AB56 4AD,3458AV,BUCKIE,REGENCY CAR SALES LIMITED,{'$oid': '6413ca51080004ea81cb7769'},57.6679996,-2.9570348,Point
UNIT 1 222 LONDON ROAD,,,0,0,0,1,0,0,"_,01727868599",AL1 1PN,V105707,ST ALBANS,MAC TESTING LTD,{'$oid': '6413ca51080004ea81cb776a'},51.74473769999999,-0.3269287,Point
MILL YARD,STATION ROAD,,0,0,0,1,1,1,"_,01466792594",AB54 6HY,1ALF47,HUNTLY,G&L MARSHALL,{'$oid': '6413ca51080004ea81cb776b'},57.4451216,-2.7759861,Point
FYVIE GARAGE LIMITED,FORDOUN BRIDGE,,0,0,0,1,0,0,"_,01651 891129",AB53 8JP,V100295,FYVIE,FYVIE GARAGE LIMITED,{'$oid': '6413ca51080004ea81cb776c'},57.42815170000001,-2.3981116,Point
103-105 OLD LONDON ROAD,,,0,0,0,1,0,0,"_,01727867214",AL1 1QD,7165AZ,ST ALBANS,OLD LONDON ROAD GARAGE LTD,{'$oid': '6413ca51080004ea81cb776d'},51.7474467,-0.3325736,Point
UNIT 6,NORTH ORBITAL COMMERCIAL PARK,NAPSBURY LANE,1,1,0,1,0,1,"_,07860343751",AL1 1XB,S003727,ST ALBANS,M CHAPMAN AUTO SERVICES LIMITED,{'$oid': '6413ca51080004ea81cb776e'},51.7347291,-0.3176671,Point
UNIT 13 NORTH ORBITAL COMMERCIAL PARK,,,0,0,0,1,1,1,"_,01727 858300",AL1 1XB,V104068,ST ALBANS,DRIVE THRU MOT LTD,{'$oid': '6413ca51080004ea81cb776f'},51.7347291,-0.3176671,Point
212 HATFIELD ROAD,,,0,0,0,1,0,0,"_,01727832381",AL1 4HY,V104454,ST ALBANS,KWIK FIT,{'$oid': '6413ca51080004ea81cb7770'},51.7520226,-0.3150504,Point
12-14 BRICKKNOLL PARK,ASHLEY ROAD,,0,0,0,1,0,1,"_,07483157578",AL1 5BB,S001320,ST ALBANS,,{'$oid': '6413ca51080004ea81cb7771'},51.7487295,-0.3022952,Point
105 ASHLEY ROAD,,,0,0,0,1,1,1,"_,01727 791300",AL1 5DE,V108956,"ST ALBANS,HERTFORDSHIRE",VARIOUS SITES,{'$oid': '6413ca51080004ea81cb7772'},51.7497362,-0.3051642,Point
214-218 HATFIELD ROAD,,,0,0,0,1,0,0,"_,01727836372",AL1 4LW,1AKU28,ST ALBANS,PRESTIGE PERFORMANCE LTD,{'$oid': '6413ca51080004ea81cb7773'},51.7519514,-0.3145081,Point
13-15 SUTTON ROAD,,,0,0,0,1,0,0,"_,01727 836673",AL1 5JQ,V102124,ST ALBANS,D P MOTORS,{'$oid': '6413ca51080004ea81cb7774'},51.7494082,-0.3109534,Point
UNIT 9,SPHERE INDUSTRIAL ESTATE,CAMPFIELD ROAD,0,0,0,1,0,0,"_,01727830539",AL1 5HT,18816,ST ALBANS,M WILSON MOTOR REPAIRS,{'$oid': '6413ca51080004ea81cb7775'},51.74993389999999,-0.3149257,Point
20 GUILDFORD ROAD,,,0,0,0,1,0,0,"_,01727830884",AL1 5JY,17978,ST ALBANS,GUILDFORD ROAD MOTORS,{'$oid': '6413ca51080004ea81cb7776'},51.7491967,-0.3083683,Point
1 BURY ROAD,,,0,0,0,1,1,1,"_,01707268740",AL10 8BJ,V101688,HATFIELD,FAIRWAY TYRE & AUTO SERVICES LIMITED,{'$oid': '6413ca51080004ea81cb7777'},51.7628786,-0.2164899,Point
51 RADLETT ROAD,FROGMORE,,0,0,0,1,0,0,"_,01727 874660",AL2 2JX,4165AE,ST ALBANS,BRIDGE MOTORS,{'$oid': '6413ca51080004ea81cb7778'},51.7142407,-0.3330958,Point
165A CAMP ROAD,,,0,0,0,1,0,0,"_,01727832835",AL1 5LZ,17887,ST ALBANS,GOLD CREST MOTORS LTD,{'$oid': '6413ca51080004ea81cb7779'},51.7481211,-0.3120009,Point
88 PARK STREET,,,0,0,0,1,0,0,"_,01727 768826",AL2 2LR,3542BD,ST ALBANS,WATLING TEST CENTRE LTD,{'$oid': '6413ca51080004ea81cb777a'},51.7203995,-0.3372773,Point
PAYNES YARD,PARK STREET LANE,,0,0,0,1,0,0,"_,01727873814",AL2 2NE,18208,ST ALBANS,PARK STREET TEST CENTRE,{'$oid': '6413ca51080004ea81cb777b'},51.7219421,-0.3397007,Point
20 CATHERINE STREET,,,0,0,0,1,0,0,"_,01727854342",AL3 5BY,15640,ST ALBANS,W M COUPER LIMITED,{'$oid': '6413ca51080004ea81cb777c'},51.7551565,-0.3369531,Point
"UNIT 30, SOOTHOUSE SPRING",ST ALBANS,,0,0,0,1,1,1,"_,07850 861 892",AL3 6PF,V109219,HERTFORDSHIRE,ABBEY AUTOS LIMITED,{'$oid': '6413ca51080004ea81cb777d'},51.7709355,-0.3250162,Point
"UNITS 5 & 6, THE GRYPHON INDUSTRIAL PARK",PORTERS WOOD,,0,0,0,1,0,0,"_,01727867747",AL3 6XZ,V109192,ST ALBANS,ST ALBANS CAR CLINIC,{'$oid': '6413ca51080004ea81cb777e'},51.7724749,-0.3231271,Point
GRANGE HATFIELD,MOSQUITO WAY,,0,0,0,1,0,0,"_,01707266255",AL10 9SN,S002033,HATFIELD,HATFIELD JAGUAR LAND ROVER,{'$oid': '6413ca51080004ea81cb777f'},51.7685623,-0.239766,Point
1 HIGH STREET,,,0,0,0,1,1,1,"_,01582 794000",AL3 7LE,V106834,REDBOURN,REDBOURN MOT CENTRE LTD,{'$oid': '6413ca51080004ea81cb7780'},51.7956367,-0.3917928,Point
279  HIGH STREET,LONDON COLNEY,,1,1,0,1,0,0,"_,01727824196",AL2 1EU,19117,ST ALBANS,INTELLIGENT AUTOS,{'$oid': '6413ca51080004ea81cb7781'},51.7260986,-0.298362,Point
UNIT 25,THE I O CENTRE,HEARLE WAY,0,0,0,1,0,0,"_,01707 265887",AL10 9EW,V100031,HATFIELD,M G STICKLAND,{'$oid': '6413ca51080004ea81cb7782'},51.7689471,-0.2435529,Point
1 HATFIELD AVENUE,,,0,0,0,1,0,0,"_,01707 277911.",AL10 9UA,V100424,HATFIELD,PORSCHE RETAIL GROUP LIMITED,{'$oid': '6413ca51080004ea81cb7783'},51.7702836,-0.2350141,Point
271 HIGH STREET,LONDON COLNEY,,0,0,0,1,0,0,"_,01727822825",AL2 1HA,17951,ST ALBANS,LAWRENCE AUTO SERVICES,{'$oid': '6413ca51080004ea81cb7784'},51.7256552,-0.297841,Point
6 REDBOURN INDUSTRIAL ESTATE,HIGH STREET,,0,0,0,1,1,1,"_,01582 679 300",AL3 7LG,S003554,REDBOURN,REDBOURN AUTO SOLUTIONS,{'$oid': '6413ca51080004ea81cb7785'},51.7966062,-0.3937445,Point
CLA-GAL HOUSE,LYON WAY,,0,0,0,1,0,0,"_,01727 818065",AL4 0LB,S001160,ST ALBANS,GLYN HOPKIN,{'$oid': '6413ca51080004ea81cb7786'},51.7510925,-0.2742583,Point
GOLDEN LION GARAGE,HIGH STREET,,0,0,0,1,0,0,"_,01727822168",AL2 1RG,18678,LONDON COLNEY,REYNOLDS AUTOS,{'$oid': '6413ca51080004ea81cb7787'},51.7220541,-0.2942434,Point
UNIT 1,ACREWOOD PARK,ACREWOOD WAY,0,0,0,1,0,1,"_,01727810431",AL4 0FT,V110200,ST ALBANS,HALFORDS AUTOCENTRE,{'$oid': '6413ca51080004ea81cb7788'},51.7519456,-0.278137,Point
131 HIGH STREET,MARKYATE,,1,1,0,1,0,0,"_,01582840474",AL3 8LG,11534,ST ALBANS,HARTS MOTORS,{'$oid': '6413ca51080004ea81cb7789'},51.8355833,-0.4591815,Point
"UNIT 6, ACREWOOD WAY",HATFIELD ROAD,,0,0,0,1,0,0,"_,01727852000",AL4 0FT,V110194,ST ALBANS,FORMULA ONE AUTOCENTRES LIMITED,{'$oid': '6413ca51080004ea81cb778a'},51.7519012,-0.2779406,Point
610  HATFIELD ROAD,SMALLFORD,,0,0,0,1,0,0,"_,01727834840",AL4 0HP,5315AA,ST ALBANS,ST ALBANS RECOVERY,{'$oid': '6413ca51080004ea81cb778b'},51.7551892,-0.2678476,Point
UNIT 11,ALBAN PARK,HATFIELD ROAD,0,0,0,1,0,0,"_,01727890100",AL4 0JJ,9266BH,ST ALBANS,VARIOUS SITES,{'$oid': '6413ca51080004ea81cb778c'},51.750875,-0.2818111,Point
17 LUTON ROAD,,,0,0,0,1,0,0,"_,01582 464100",AL5 2UA,8388AV,HARPENDEN,VARIOUS,{'$oid': '6413ca51080004ea81cb778d'},51.81972280000001,-0.3598129,Point
50 WESTFIELD ROAD,,,1,1,0,0,0,0,"_,01582768630",AL5 4HW,17883,HARPENDEN,THE TWO WHEEL CENTRE LTD,{'$oid': '6413ca51080004ea81cb778e'},51.82588699999999,-0.3545165,Point
"UNIT 1, 48 COLDHARBOUR LANE",HARPENDEN,,0,0,0,1,0,1,"_,01582 766800",AL5 4UN,S004182,HERTS,PAN AUTO SERVICES,{'$oid': '6413ca51080004ea81cb778f'},51.8274082,-0.3459134,Point
LYON WAY,HATFIELD ROAD,,0,0,0,1,0,0,"_,01727 722000",AL4 0QU,V104444,ST ALBANS,VARIOUS,{'$oid': '6413ca51080004ea81cb7790'},51.7529183,-0.2761591,Point
UNIT 3 BATFORD MILL,LOWER LUTON ROAD,,0,0,0,1,0,1,"_,01582 853567",AL5 5BZ,V110235,HARPENDEN,HARPENDEN MILL AUTOCARE LTD,{'$oid': '6413ca51080004ea81cb7791'},51.8215732,-0.3355893,Point
12-14 SCHOOL LANE,,,1,1,0,1,0,0,"_,01438 715076",AL6 9PH,V109080,WELWYN,OLD WELWYN MOT,{'$oid': '6413ca51080004ea81cb7792'},51.828185,-0.2188966,Point
113-115 CODICOTE ROAD,,,0,0,0,1,0,0,"_,01438820351",AL6 9TY,24075,WELWYN,JWJ CAR & COMMERCIAL,{'$oid': '6413ca51080004ea81cb7793'},51.8445102,-0.2273629,Point
UNIT 3,SOUTHDOWN IND EST,,0,0,0,1,0,0,"_,01582 469969",AL5 1PW,V102747,HARPENDEN,HARPENDEN MOT CENTRE,{'$oid': '6413ca51080004ea81cb7794'},51.8085276,-0.3462784,Point
9 BLENHEIM COUIRT,BROWNFIELDS,,0,0,0,1,0,0,"_,01707 818492",AL7 1AN,V109864,WELWYN GARDEN CITY,WELWYN AUTO CENTRE,{'$oid': '6413ca51080004ea81cb7795'},51.8032045,-0.1911629,Point
LYON WAY,,,0,0,0,1,0,1,"_,01727 811811",AL4 0LQ,V100469,ST ALBANS,GLYN HOPKIN,{'$oid': '6413ca51080004ea81cb7796'},51.7513536,-0.2754555,Point
UNIT 7,MUNDELLS COURT,,0,0,0,1,0,0,"_,01707 321311",AL7 1EN,V106197,WELWYN GARDEN CITY,G & D AUTO SERVICES LTD,{'$oid': '6413ca51080004ea81cb7797'},51.80851699999999,-0.1885235,Point
UNIT 4,TEWIN COURT,,0,0,0,1,0,0,"_,01707 391985",AL7 1AU,V105329,WELWYN GARDEN CITY,HALLGROVE GARAGE LTD,{'$oid': '6413ca51080004ea81cb7798'},51.8034714,-0.1930941,Point
1 SOUTH MUNDELLS,WELWYN GARDEN CITY,,0,0,0,1,0,0,"_,01707 371411",AL7 1EP,S002767,HERTFORDSHIRE,FORMULA ONE AUTOCENTRES LIMITED,{'$oid': '6413ca51080004ea81cb7799'},51.805844,-0.1898753,Point
4 SOUTH MUNDELLS,,,1,1,0,0,0,0,"_,01707 324249",AL7 1EP,V109663,WELWYN GARDEN CITY,,{'$oid': '6413ca51080004ea81cb779a'},51.8053731,-0.1898771,Point
8 QUADRANT PARK,MUNDELLS,BLACKFAN ROAD,0,0,0,1,1,1,"_,01707 322399",AL7 1FS,V105568,WELWYN GARDEN CITY,WELWYN TYRE AND MOT CENTRE,{'$oid': '6413ca51080004ea81cb779b'},51.8071474,-0.1893779,Point
15 HIGH STREET,,,0,0,0,1,0,0,"_,01582832212",AL4 8BQ,1227BX,WHEATHAMPSTEAD,JESSAMINE MOTOR CO LTD,{'$oid': '6413ca51080004ea81cb779c'},51.8131019,-0.293093,Point
22-24 GROVE ROAD,,,0,0,0,1,0,0,"_,01582764322",AL5 1PX,19236,HARPENDEN,PAN AUTO SERVICES,{'$oid': '6413ca51080004ea81cb779d'},51.8069328,-0.3400752,Point
LYON WAY,OFF HATFIELD ROAD,,0,0,0,1,0,0,"_,01727811811",AL4 0QU,6640BX,ST ALBANS,GLYN HOPKIN,{'$oid': '6413ca51080004ea81cb779e'},51.752922,-0.275833,Point
UNIT 6,THE BRIDGEFIELDS ESTATE,BRIDGEFIELDS,0,0,0,1,1,1,"_,01707830694",AL7 1RX,S002414,WELWYN GARDEN CITY,OVERLAND AUTOMOTIVE,{'$oid': '6413ca51080004ea81cb779f'},51.8043236,-0.1936465,Point
UNIT 23,LITTLE RIDGE,RIDGEWAY,1,1,0,0,0,0,"_,01707 321666",AL7 2BH,V105002,WELWYN GARDEN CITY,BIKERSREALM LTD,{'$oid': '6413ca51080004ea81cb77a0'},51.79840249999999,-0.1827273,Point
27 BRIDGE ROAD EAST,,,0,0,0,1,0,0,"_,01707395995",AL7 1JE,1ALU34,WELWYN GARDEN CITY,KWIK FIT,{'$oid': '6413ca51080004ea81cb77a1'},51.80173139999999,-0.1964551,Point
23a BROADWATER ROAD,,,0,0,0,1,0,0,"_,01707 371111",AL7 3BQ,V107005,WELWYN GARDEN CITY,SUPERTYRES MOT CENTRE (WELWYN) LTD,{'$oid': '6413ca51080004ea81cb77a2'},51.7990571,-0.1995823,Point
27A HYDE WAY,WELWYN GARDEN CITY,,0,0,0,1,0,0,"_,01707373622",AL7 3UQ,1944BU,HERTS,WELYWN TEST CENTRE,{'$oid': '6413ca51080004ea81cb77a3'},51.8001678,-0.1971873,Point
REAR OF 34 BURROWFIELD,,,1,1,1,1,0,0,"_,01707518729",AL7 4SR,S001584,WELWYN GARDEN CITY,MOT YOUR CAR LTD,{'$oid': '6413ca51080004ea81cb77a4'},51.7895777,-0.2078068,Point
29 East Burrowfield,,,0,0,0,1,1,1,"_,01707 322555",AL7 4SS,V109567,WELWYN GARDEN CITY,South Mimms Travel Ltd,{'$oid': '6413ca51080004ea81cb77a5'},51.7888688,-0.2069788,Point
UNIT B,BRIDGE PARK,27 BRIDGE ROAD EAST,0,0,0,1,0,0,"_,01707396097",AL7 1HL,4253BB,WELWYN GARDEN CITY,HALFORDS AUTOCENTRE,{'$oid': '6413ca51080004ea81cb77a6'},51.8020618,-0.1970123,Point
3 & 4 SOUTHFIELD,CHEQUERS INDUSTRIAL ESTATE,,0,0,1,1,1,1,"_,01707 322 668",AL7 4ST,18102,WELWYN GARDEN CITY,MALMECH & MANNION,{'$oid': '6413ca51080004ea81cb77a7'},51.78937670000001,-0.2059695,Point
5 SOUTHFIELD,,,0,0,0,1,1,1,"_,01707 320174",AL7 4ST,V105195,WELWYN GARDEN CITY,WINGS OF WELWYN,{'$oid': '6413ca51080004ea81cb77a8'},51.789631,-0.2054661,Point
12 LITTLE BURROW,,,0,0,0,1,0,0,"_,01707707110",AL7 4SW,S003359,WELWYN GARDEN CITY,G & B AUTOS LTD,{'$oid': '6413ca51080004ea81cb77a9'},51.7906111,-0.2061218,Point
7 SWALLOW END,WELWYN GARDEN CITY,,0,0,0,1,0,0,"_,01707 329181",AL7 1JA,V104461,HERTS,JN TYRES,{'$oid': '6413ca51080004ea81cb77aa'},51.801558,-0.1898744,Point
74 - 76 HIGH STREET,,,0,0,0,1,0,0,"_,01582461626",AL5 2SP,V103876,HARPENDEN,KWIK FIT,{'$oid': '6413ca51080004ea81cb77ab'},51.8178194,-0.3580531,Point
UNIT 4,EAST BURROWFIELD,,0,0,0,1,0,0,"_,01707393739",AL7 4TB,3775B7,WELWYN GARDEN CITY,PIT-STOP AUTOCENTRES (WGC) LIMITED,{'$oid': '6413ca51080004ea81cb77ac'},51.78897569999999,-0.2079719,Point
2 WOODFIELD ROAD,,,0,0,0,1,0,0,"_,01707393017",AL7 1JQ,4311BY,WELWYN GARDEN CITY,BURROWFIELD AUTO SERVICES LIMITED,{'$oid': '6413ca51080004ea81cb77ad'},51.7992871,-0.1894315,Point
1 GREAT NORTH ROAD,,,0,0,0,1,0,0,"_,01707 288550",AL9 5JA,V103814,HATFIELD,ROBINS & DAY,{'$oid': '6413ca51080004ea81cb77ae'},51.76038699999999,-0.2164768,Point
H R OWEN PARK,168 GREAT NORTH ROAD,,0,0,0,1,0,0,"_,01707252100",AL9 5JN,1ALC55,HATFIELD,VARIOUS,{'$oid': '6413ca51080004ea81cb77af'},51.7724468,-0.2167435,Point
174 GREAT NORTH ROAD,,,0,0,0,1,0,0,"_,07717516367",AL9 5JN,S001531,HATFIELD,,{'$oid': '6413ca51080004ea81cb77b0'},51.775429,-0.2175863,Point
DELLSOME LANE,WELHAM GREEN,,0,0,0,1,0,0,"_,01707267100",AL9 7NF,13901,HATFIELD,,{'$oid': '6413ca51080004ea81cb77b1'},51.7353846,-0.21969,Point
TRAVELLERS LANE,WELHAM GREEN,,0,0,0,1,1,1,"_,01707 261111",AL9 7HN,S004222,HATFIELD,MOTUS TRUCK AND VAN,{'$oid': '6413ca51080004ea81cb77b2'},51.7386518,-0.2135116,Point
SOUTHERN CROSS GARAGE,SWANLAND ROAD,,0,0,0,1,0,0,"_,01707662687",AL9 7TS,7421BM,NORTH MYMMS, 	PT MOTORS LIMITED,{'$oid': '6413ca51080004ea81cb77b3'},51.7254894,-0.2241477,Point
66 - 67 HOLLOWAY HEAD,CITY CENTRE,,0,0,0,1,0,0,"_,01216432078",B1 1NG,55466,BIRMINGHAM,KWIK FIT,{'$oid': '6413ca51080004ea81cb77b4'},52.4740736,-1.9032926,Point
113 - 115 HOLLOWAY HEAD,,,0,0,0,1,0,0,"_,0121 632 5269",B1 1QP,2723BC,BIRMINGHAM,HALFORDS AUTOCENTRE,{'$oid': '6413ca51080004ea81cb77b5'},52.4734086,-1.9047722,Point
100 SMALL HEATH HIGHWAY,,,0,0,0,1,1,1,"_,0121 766 7060",B10 0BT,0942AD,BIRMINGHAM,ROBINS & DAY,{'$oid': '6413ca51080004ea81cb77b6'},52.47001059999999,-1.8720816,Point
119-121 GOLDEN HILLOCK ROAD,SMALL HEATH,,0,0,0,1,0,0,"_,0121 7721678",B10 0DP,52319,BIRMINGHAM,GOLDEN HILLOCK ROAD SERVICE STATION,{'$oid': '6413ca51080004ea81cb77b7'},52.466187,-1.8589551,Point
UNIT 7 SMALL HEATH HIGHWAY,SAPCOTE TRADING CENTRE,,0,0,0,1,0,0,"_,01217721369",B10 0HR,1ALP96,BIRMINGHAM,DHCM LIMITED,{'$oid': '6413ca51080004ea81cb77b8'},52.4610417,-1.8480816,Point
226 HERBERT ROAD,SMALL HEATH,,0,0,0,1,1,1,"_,0121 772 7861",B10 0PR,8788BD,BIRMINGHAM,IT AUTO'S LTD,{'$oid': '6413ca51080004ea81cb77b9'},52.4691268,-1.8639608,Point
UNIT 2,CAMELOT WAY,,0,0,0,1,0,0,"_,0121 753 4988",B10 0NN,S000270,BIRMINGHAM,SAAD AUTO MECHANICS LTD,{'$oid': '6413ca51080004ea81cb77ba'},52.4691043,-1.8658393,Point
88 GOLDEN HILLOCK ROAD,SMALL HEATH,,0,0,0,1,0,0,"_,01217724797",B10 0DX,54212,BIRMINGHAM,WAVERLEY SERVICE STATION,{'$oid': '6413ca51080004ea81cb77bb'},52.466009,-1.8583685,Point
UNIT 1,SYDENHAM ROAD,SPARKBROOK,0,0,0,1,1,1,"_,0121 772 7700",B11 1DG,1ALM58,BIRMINGHAM,I K AUTO CENTRE LIMITED,{'$oid': '6413ca51080004ea81cb77bc'},52.4619838,-1.8627729,Point
REAR OF 302 STRATFORD ROAD,SPARKBROOK,,0,0,0,1,1,1,"_,0121 753 4969",B11 1AA,1ALM49,BIRMINGHAM,RAPYAL AUTO SERVICES,{'$oid': '6413ca51080004ea81cb77bd'},52.4592862,-1.8711911,Point
9 - 11 GRAFTON ROAD,SPARKBROOK,,0,0,0,1,0,1,"_,0121 773 9888",B11 1JP,1ALV11,BIRMINGHAM,GRAFTON AUTO MOT CENTRE LTD,{'$oid': '6413ca51080004ea81cb77be'},52.4667329,-1.8757535,Point
80 GRANGE ROAD,SMALL HEATH,,0,0,0,1,0,0,"_,0121 773 2532",B10 9QR,V102781,BIRMINGHAM,SPECTRUM TRAINING SERVICES LTD,{'$oid': '6413ca51080004ea81cb77bf'},52.47312489999999,-1.8556412,Point
425 TO 429 COVENTRY ROAD,SMALL HEATH,,0,0,0,1,0,0,"_,0121 773 0552",B10 0TH,54739,BIRMINGHAM,SWIFT REPAIRS LIMITED,{'$oid': '6413ca51080004ea81cb77c0'},52.4702773,-1.8606181,Point
UNIT 4 149 TO 159 MUNTZ STREET,SMALL HEATH,,0,0,0,1,0,0,"_,01217724050",B10 9SJ,V108472,BIRMINGHAM,R AND R MOT CENTRE,{'$oid': '6413ca51080004ea81cb77c1'},52.4729201,-1.8546162,Point
216A HERBERT ROAD,SMALL HEATH,,0,0,0,1,0,0,"_,01215727867",B10 0GY,V108268,BIRMINGHAM,OSMAN MOTORS,{'$oid': '6413ca51080004ea81cb77c2'},52.4698234,-1.8652134,Point
314 TO 316 HOB MOOR ROAD,SMALL HEATH,,0,0,0,1,1,1,"_,0121 786 2223",B10 9HJ,1ALY79,BIRMINGHAM,HEARTLANDS AUTO CENTRE LIMITED,{'$oid': '6413ca51080004ea81cb77c3'},52.4706004,-1.8288612,Point
180-182 STRATFORD ROAD,SPARKBROOK,,0,0,0,1,1,1,"_,0121 7728282",B11 1AQ,1ALR25,BIRMINGHAM,MSL CENTRE LTD,{'$oid': '6413ca51080004ea81cb77c4'},52.4634008,-1.8757244,Point
UNIT 3 KYOTTS LAKE INDUSTRIAL ESTATE,14 TO 16 PORT HOPE ROAD,SPARKBROOK,0,0,0,1,0,0,"_,07922 780116",B11 1JS,V109320,BIRMINGHAM,RED LINE U.K LTD,{'$oid': '6413ca51080004ea81cb77c5'},52.4664586,-1.8770181,Point
18 - 20 PORT HOPE ROAD,SPARKBROOK,,0,0,0,1,1,1,"_,07922 780 116",B11 1JS,S001124,BIRMINGHAM,REDLINE UK LTD BRANCH 2,{'$oid': '6413ca51080004ea81cb77c6'},52.4663873,-1.8764148,Point
50 FARM ROAD,SPARKBROOK,,0,0,0,1,0,0,"_,0121 771 0271",B11 1LS,54661,BIRMINGHAM,MIKE KNIGHT & SON (AUTOS) LIMITED,{'$oid': '6413ca51080004ea81cb77c7'},52.463183,-1.874448,Point
40 TO 42 KYOTTS LAKE ROAD,SPARKBROOK,,0,0,0,1,1,1,"_,0121 772 5406",B11 1JT,V106822,BIRMINGHAM,PAKO MOTORS LIMITED,{'$oid': '6413ca51080004ea81cb77c8'},52.4656753,-1.8754604,Point
UNIT 4 BIZSPACE  BUSINESS PARK,KINGS ROAD,TYSELEY,1,1,0,1,0,0,"_,0121 765 4580",B11 2AG,55479,BIRMINGHAM,AUTO TEST CENTRE,{'$oid': '6413ca51080004ea81cb77c9'},52.45822039999999,-1.8394815,Point
9 WALFORD ROAD,SPARKHILL,,0,0,0,1,0,0,"_,0121 753 3085",B11 1NP,0497BR,BIRMINGHAM,M B K AUTOS LIMITED,{'$oid': '6413ca51080004ea81cb77ca'},52.458983,-1.8686256,Point
UNIT 2 SPEEDWELL TRADING ESTATE,KINGS ROAD,TYSELEY,0,0,0,1,1,1,"_,0121 766 8833",B11 2AT,V105180,BIRMINGHAM,CITY FLEET CARE LTD,{'$oid': '6413ca51080004ea81cb77cb'},52.46020679999999,-1.8374302,Point
131 MANOR FARM ROAD,SOLIHULL,,0,0,0,1,0,0,"_,01217074025",B11 2HT,S001610,BIRMINGHAM,P & V MOTORS LTD,{'$oid': '6413ca51080004ea81cb77cc'},52.453528,-1.851948,Point
64 MONTGOMERY STREET,SPARKBROOK,,1,1,0,1,0,0,"_,0121 772 2980",B11 1DU,S001377,BIRMINGHAM,MOT BAY,{'$oid': '6413ca51080004ea81cb77cd'},52.465528,-1.8689569,Point
199 GOLDEN HILLOCK ROAD,SMALL HEATH,,0,0,0,1,0,1,"_,01217734756",B11 2PN,V103296,BIRMINGHAM,SHAH AUTO CENTRE LTD,{'$oid': '6413ca51080004ea81cb77ce'},52.4621346,-1.8582538,Point
247 - 249 STRATFORD ROAD,SPARKHILL,,0,0,0,1,0,1,"_,0121 766 6200",B11 1QT,V103246,BIRMINGHAM,CITY MOTORS,{'$oid': '6413ca51080004ea81cb77cf'},52.46051869999999,-1.8731642,Point
ARMOURY LANE,SMALL HEATH,,0,0,0,1,0,0,"_,0121 753 2112",B11 2PP,S000243,BIRMINGHAM,ROBINS & DAY,{'$oid': '6413ca51080004ea81cb77d0'},52.4618171,-1.8566197,Point
UNIT 2B COLE RIVER PARK,WARWICK ROAD,TYSLEY,0,0,0,1,1,1,"_,0121 773 7786",B11 2QR,V103942,BIRMINGHAM,SAKIS AUTO CENTRE,{'$oid': '6413ca51080004ea81cb77d1'},52.4534196,-1.8562173,Point
45 FORMANS ROAD,,SPARKHILL,0,0,0,1,0,1,"_,0121 439 2820",B11 3AR,V102751,BIRMINGHAM,FORMANS AUTO CENTRE,{'$oid': '6413ca51080004ea81cb77d2'},52.4480832,-1.857793,Point
2 LEOMINSTER ROAD,SPARKHILL,,0,0,0,1,0,0,"_,0121 777 6455",B11 3BJ,V102904,BIRMINGHAM,ALFA AUTO SERVICES LIMITED,{'$oid': '6413ca51080004ea81cb77d3'},52.44762360000001,-1.8523946,Point
25 SPRING ROAD,TYSLEY,,0,0,0,1,0,0,"_,0121 777 5370",B11 3ER,V107216,BIRMINGHAM,CARTECH MOT,{'$oid': '6413ca51080004ea81cb77d4'},52.44620399999999,-1.8452592,Point
PREMISES ADJACENT TO 111A EVELYN ROAD,SPARKHILL,,0,0,0,1,0,0,"_,0121 766 7411",B11 3JJ,V101029,BIRMINGHAM,SNT AUTO CENTRE MIDLANDS LIMITED,{'$oid': '6413ca51080004ea81cb77d5'},52.4518523,-1.8598849,Point
3 LYNCROFT ROAD,TYSELEY,,0,0,0,1,0,0,"_,0121 777 7200",B11 3EJ,V103127,BIRMINGHAM,G.T. MOTORS LIMITED,{'$oid': '6413ca51080004ea81cb77d6'},52.4460353,-1.8449731,Point
12 TO 17 ALFRED ROAD,SPARKBROOK,,0,0,0,1,0,0,"_,07977750370",B11 4PB,V107927,BIRMINGHAM,GH AUTOS,{'$oid': '6413ca51080004ea81cb77d7'},52.4577177,-1.8716015,Point
65A CHEAPSIDE,DIGBETH,,0,0,0,1,0,0,"_,0121 753 5553",B12 0RP,V106374,BIRMINGHAM,A D H AUTOMOTIVE,{'$oid': '6413ca51080004ea81cb77d8'},52.4722849,-1.8868212,Point
75 MOSELEY STREET,,,0,0,0,1,0,0,"_,0121 666 6121",B12 0RT,V105524,BIRMINGHAM,XCLUSIVE MOTOR SERVICES LTD,{'$oid': '6413ca51080004ea81cb77d9'},52.4715669,-1.8869215,Point
LEOPOLD STREET,HIGHGATE,,0,0,0,1,0,0,"_,0121 4407282",B12 0UJ,5756BE,BIRMINGHAM,LEOPOLD AUTO,{'$oid': '6413ca51080004ea81cb77da'},52.4674475,-1.8863944,Point
171 TO 172 ST PAULS ROAD,BALSALL HEATH,,0,0,0,1,0,0,"_,0121 440 4477",B12 8LZ,6985B2,BIRMINGHAM,BRIDGE STAR 001 LTD,{'$oid': '6413ca51080004ea81cb77db'},52.4585768,-1.8831967,Point
UNIT 2 TO 10 OMBERSLEY ROAD,HIGHGATE,,0,0,0,1,0,0,"_,0121 440 2676",B12 8UR,1ALH07,BIRMINGHAM,SERVCO,{'$oid': '6413ca51080004ea81cb77dc'},52.4608334,-1.8827632,Point
218 HIGHGATE ROAD,SPARKBROOK,,0,0,0,1,0,0,"_,0121 439 8384",B12 8EA,1AKU12,BIRMINGHAM,CLUTCH FIT AUTO REPAIR,{'$oid': '6413ca51080004ea81cb77dd'},52.4592178,-1.8755147,Point
82-84 EMILY STREET,HIGHGATE,,0,0,0,1,0,0,"_,0121 440 3479",B12 0XJ,V100722,BIRMINGHAM,HIGHGATE AUTOS MIDLAND LIMITED,{'$oid': '6413ca51080004ea81cb77de'},52.4669955,-1.8867685,Point
34 CLIFTON ROAD,BALSALL HEATH,,0,0,0,1,0,0,"_,0121 4401978",B12 8SX,55293,BIRMINGHAM,DIAMOND AUTO SERVICES,{'$oid': '6413ca51080004ea81cb77df'},52.4566031,-1.884117,Point
414-416 LADYPOOL ROAD,SPARKBROOK,,0,0,0,1,0,0,"_,0121 449 2022",B12 8JZ,5389BF,BIRMINGHAM,SHAMS AUTOS,{'$oid': '6413ca51080004ea81cb77e0'},52.452081,-1.8785944,Point
454 TO 460 MOSELEY ROAD,BALSALL HEATH,,0,0,0,1,1,1,"_,0121 440 4411",B12 9AN,V100184,BIRMINGHAM,HADENS BIRMINGHAM LIMITED,{'$oid': '6413ca51080004ea81cb77e1'},52.45840399999999,-1.8848054,Point
BRIGHTON ROAD,BALSALL HEATH,,0,0,0,1,1,1,"_,0121 449 4799",B12 8PU,7064BT,BIRMINGHAM,BIRMINGHAM AUTO CENTRE,{'$oid': '6413ca51080004ea81cb77e2'},52.4541333,-1.8834532,Point
107 WOODFIELD ROAD,SPARKBROOK,,0,0,0,1,0,0,"_,0121 4465556",B12 8TE,5452BQ,BIRMINGHAM,TILTON AUTO SERVICES LTD,{'$oid': '6413ca51080004ea81cb77e3'},52.4593506,-1.8829021,Point
453 TO 459 MOSELEY ROAD,BALSALL HEATH,,0,0,0,1,1,1,"_,0121 440 3737",B12 9BX,1ALV18,BIRMINGHAM,PROSTAR002 LIMITED,{'$oid': '6413ca51080004ea81cb77e4'},52.4589152,-1.8852158,Point
547 - 557 MOSELEY ROAD,BALSALL HEATH,,0,0,0,1,0,0,"_,01214464959",B12 9BS,V101753,BIRMINGHAM,KWIK FIT,{'$oid': '6413ca51080004ea81cb77e5'},52.4561479,-1.8865455,Point
292 UPPER BALSALL HEATH ROAD,,,0,0,0,1,1,1,"_,0121 440 3252",B12 9DR,V104765,BIRMINGHAM,SAM AUTO CENTRE LIMITED,{'$oid': '6413ca51080004ea81cb77e6'},52.460081,-1.8854362,Point
383 TO 387 MOSELEY ROAD,HIGHGATE,,0,0,0,1,0,0,"_,0121 440 0779",B12 9DD,54594,BIRMINGHAM,BR CAR CARE CENTRE,{'$oid': '6413ca51080004ea81cb77e7'},52.4610426,-1.8846105,Point
2-4 BATH WALK,BALSALL HEATH,,0,0,0,1,0,0,"_,01214464440",B12 9RH,1AME25,BIRMINGHAM,SY MOTORS LIMITED,{'$oid': '6413ca51080004ea81cb77e8'},52.4569115,-1.8906238,Point
3 SPRINGFIELD ROAD,MOSELEY,,0,0,0,1,0,0,"_,0121 7776696",B13 9NY,1ALU18,BIRMINGHAM,SAJ AUTOS,{'$oid': '6413ca51080004ea81cb77e9'},52.443898,-1.8588953,Point
17A ALCESTER ROAD,MOSELEY,,0,0,0,1,1,1,"_,0121 449 6736",B13 8AR,V104508,BIRMINGHAM,SELLY PARK MOTOR BODIES,{'$oid': '6413ca51080004ea81cb77ea'},52.45331059999999,-1.8875203,Point
181 BILLESLEY LANE,MOSELEY,,0,0,0,1,0,0,"_,0121 443 3311",B13 9RR,2634AC,BIRMINGHAM,TOTALLY AUTOMOTIVE LTD,{'$oid': '6413ca51080004ea81cb77eb'},52.435128,-1.8839346,Point
7 WOODBRIDGE ROAD,MOSELEY,,0,0,0,1,0,0,"_,0121 449 7836",B13 8EH,0754BF,BIRMINGHAM,MOSELEY AUTOCENTRE,{'$oid': '6413ca51080004ea81cb77ec'},52.4483688,-1.8872693,Point
89 BILLESLEY LANE,MOSELEY,,0,0,0,1,0,0,"_,01214490674",B13 9RB,55473,BIRMINGHAM,GREENHILL GARAGE,{'$oid': '6413ca51080004ea81cb77ed'},52.4382865,-1.8798385,Point
36 HALLAM STREET,,,0,0,0,1,0,0,"_,0121 448 6050",B12 9PR,V110199,BIRMINGHAM,EDGBASTON AUTO LTD,{'$oid': '6413ca51080004ea81cb77ee'},52.4565177,-1.8931798,Point
1 TO 3 WOODTHORPE ROAD,KINGS HEATH,,0,0,0,1,0,0,"_,0121 444 2715",B14 6EE,55457,BIRMINGHAM,ALL ELECTRIC KINGS HEATH,{'$oid': '6413ca51080004ea81cb77ef'},52.4216847,-1.8926124,Point
UNIT 1B WARSTOCK ROAD,KINGS HEATH,,0,0,0,1,0,0,"_,0121 474 5555",B14 4RT,V108900,BIRMINGHAM,TYRECOM AUTOS,{'$oid': '6413ca51080004ea81cb77f0'},52.4134172,-1.8838495,Point
6 GLENAVON ROAD,KINGS HEATH,,0,0,0,1,0,0,"_,0121 474 6000",B14 5BL,1ALO09,BIRMINGHAM,BURTONS GARAGE,{'$oid': '6413ca51080004ea81cb77f1'},52.4113987,-1.8847518,Point
106 ICKNIELD PORT ROAD,LADYWOOD,,0,0,0,1,0,0,"_,07853355415",B16 0AA,6860BB,BIRMINGHAM,QUICK STOP SERVICE STATION,{'$oid': '6413ca51080004ea81cb77f2'},52.4822794,-1.9337202,Point
54 NORTON STREET,,HOCKLEY,0,0,0,1,0,1,"_,01215233318",B18 5RE,V102074,BIRMINGHAM,HOCKLEY MOT CENTRE,{'$oid': '6413ca51080004ea81cb77f3'},52.4952056,-1.9255529,Point
402 PARK ROAD,HOCKLEY,,0,0,0,1,1,1,"_,01215514828",B18 5ST,1499A2,BIRMINGHAM,M S MOTOR SERVICES LIMITED,{'$oid': '6413ca51080004ea81cb77f4'},52.49762579999999,-1.9291985,Point
500 PARK ROAD,HOCKLEY,,0,0,0,1,0,0,"_,01215546563",B18 5TR,8459BT,BIRMINGHAM,BADWAL MOTORS,{'$oid': '6413ca51080004ea81cb77f5'},52.49966269999999,-1.9321003,Point
UNIT 2 PARTONS ROAD,KINGS HEATH,,0,0,0,1,0,0,"_,01214391616",B14 6TA,S002490,BIRMINGHAM,GLA AUTOS LTD,{'$oid': '6413ca51080004ea81cb77f6'},52.4247958,-1.9022768,Point
3 AVENUE ROAD,KINGS HEATH,,0,0,0,1,0,0,"_,0121 444 1268",B14 7TH,V105875,BIRMINGHAM,P A ATKINSON AND SONS LIMITED,{'$oid': '6413ca51080004ea81cb77f7'},52.4315143,-1.8976838,Point
19 INSTITUTE ROAD,,KINGS HEATH,0,0,0,1,0,0,"_,01214434330",B14 7EG,V104679,BIRMINGHAM,KWIK FIT,{'$oid': '6413ca51080004ea81cb77f8'},52.4338427,-1.8907276,Point
78 STOUR STREET,LADYWOOD,,0,0,0,1,0,0,"_,0121 454 3259",B18 7AJ,V107796,BIRMINGHAM,APEX AUTOCENTRES LTD,{'$oid': '6413ca51080004ea81cb77f9'},52.4842723,-1.9239342,Point
PITSFORD STREET,HOCKLEY,,0,0,0,1,1,1,"_,01215151593",B18 6LZ,2771BT,BIRMINGHAM,RIVUS FLEET SOLUTIONS,{'$oid': '6413ca51080004ea81cb77fa'},52.4895954,-1.9171801,Point
12 HEATHFIELD ROAD,HANDSWORTH,,0,0,0,1,0,0,"_,01215544963",B19 1HB,54172,BIRMINGHAM,VILLA CROSS GARAGE LTD,{'$oid': '6413ca51080004ea81cb77fb'},52.5032957,-1.9149734,Point
367 DUDLEY ROAD,WINSON GREEN,,0,0,0,1,0,0,"_,0121 456 3929",B18 4HB,V102813,BIRMINGHAM,DUDLEY ROAD MOT,{'$oid': '6413ca51080004ea81cb77fc'},52.4871042,-1.9444584,Point
1 HANDSWORTH NEW ROAD,WINSON GREEN,,0,0,0,1,0,0,"_,01215544396",B18 4PG,53954,BIRMINGHAM,DOLMANS GARAGE & MOT CENTRE,{'$oid': '6413ca51080004ea81cb77fd'},52.49451329999999,-1.9399004,Point
11 WELL STREET,HOCKLEY,,0,0,0,1,0,0,"_,0121 554 2830",B19 3BG,S000561,BIRMINGHAM,SWALLOW GARAGE,{'$oid': '6413ca51080004ea81cb77fe'},52.49195479999999,-1.9102274,Point
14 WELL ST,HOCKLEY,,0,0,0,1,0,0,"_,01215232114",B19 3BH,2605A3,BIRMINGHAM,T& R MOTOR SERVICES LTD,{'$oid': '6413ca51080004ea81cb77ff'},52.492211,-1.909722,Point
82 BREARLEY STREET,NEWTOWN,,0,0,0,1,0,0,"_,01213591032",B19 3NR,2160BT,BIRMINGHAM,VILLA MOTORING CENTRE,{'$oid': '6413ca51080004ea81cb7800'},52.4914753,-1.8984381,Point
8 FACTORY ROAD,,HOCKLEY,0,0,0,1,0,0,"_,0121 554 8943",B18 5JU,V108625,BIRMINGHAM,SUNNY MOTORS (UK) LIMITED,{'$oid': '6413ca51080004ea81cb7801'},52.49858649999999,-1.9285945,Point
8 EYRE STREET,LADY WOOD,,0,0,0,1,0,0,"_,0121 4558833",B18 7AA,S002372,BIRMINGHAM,FE MOTOR AND MOT LTD,{'$oid': '6413ca51080004ea81cb7802'},52.4857108,-1.9254936,Point
395-401 PARK ROAD,HOCKLEY,,0,0,0,1,0,0,"_,01215236748",B18 6PR,9407A4,BIRMINGHAM,RPS GARAGE SERVICES LIMITED,{'$oid': '6413ca51080004ea81cb7803'},52.49787,-1.9282945,Point
372 FARM STREET,LOZELLS,,0,0,0,1,1,1,"_,0121 439 4560",B19 2TZ,S000974,BIRMINGHAM,LOZELLS AUTO LTD,{'$oid': '6413ca51080004ea81cb7804'},52.4961064,-1.912811,Point
UNTS 1 & 2,JOHNSTONE STREET,ASTON,0,0,0,1,1,1,"_,01215549797",B19 1SZ,V104790,BIRMINGHAM,SIXWAYS MOT GARAGE LIMITED,{'$oid': '6413ca51080004ea81cb7805'},52.50475789999999,-1.9022253,Point
SUMMER LANE,,,0,0,0,1,0,0,"_,01212360706",B19 3QG,52003,BIRMINGHAM,JACKSONS GARAGE BIRMINGHAM LTD,{'$oid': '6413ca51080004ea81cb7806'},52.488734,-1.8992113,Point
24 BREARLEY STREET,NEWTOWN,,0,0,0,1,0,1,"_,01213596678-3593722",B19 3NR,3912BM,BIRMINGHAM,D T AUTO ENGINEERING,{'$oid': '6413ca51080004ea81cb7807'},52.4912979,-1.8965047,Point
146 CHURCHILL ROAD,HANDSWORTH,,0,0,0,1,0,0,"_,01215232603",B20 3PG,54300,BIRMINGHAM,SIRA MOTORS LTD,{'$oid': '6413ca51080004ea81cb7808'},52.5080894,-1.9104931,Point
147A SOMERSET ROAD,HANDSWORTH WOOD,,0,0,0,1,0,0,"_,01215547187",B20 2JF,V109680,BIRMINGHAM,SOMERSET AUTOS AND MOT CENTRE LIMITED,{'$oid': '6413ca51080004ea81cb7809'},52.5146613,-1.9331853,Point
307 NORTHFIELD ROAD,HARBORNE,,0,0,0,1,0,0,"_,0121 427 4050",B17 0TG,55086,BIRMINGHAM,TURVES GREEN SERVICE STATION LIMITED,{'$oid': '6413ca51080004ea81cb780a'},52.4475765,-1.966746,Point
UNIT L HAWTHORN INDUSTRIAL ESTATE,MIDDLEMORE ROAD,HANDSWORTH,0,0,0,1,1,1,"_,0121 551 5522",B21 0BH,V101349,BIRMINGHAM,AUTOFIT CENTRE LTD,{'$oid': '6413ca51080004ea81cb780b'},52.5075705,-1.9610194,Point
OAKLAND ROAD,HANDSWORTH,,0,0,0,1,0,0,"_,01215547002",B21 0NA,1067B3,BIRMINGHAM,OAKLAND GARAGE LTD,{'$oid': '6413ca51080004ea81cb780c'},52.5056041,-1.9425208,Point
12 CHAPEL STREET,HANDSWORTH,,0,0,0,1,0,1,"_,01215545396",B21 0PA,V102449,BIRMINGHAM,VAUX TECH,{'$oid': '6413ca51080004ea81cb780d'},52.5014879,-1.9482975,Point
43 WATTVILLE ROAD,,,0,0,0,1,1,1,"_,0121 5071980",B21 0DA,V109331,HANDSWORTH,MOTS 4 YOU LTD,{'$oid': '6413ca51080004ea81cb780e'},52.50675,-1.9538921,Point
97 ALEXANDRA ROAD,HANDSWORTH,,0,0,0,1,0,0,"_,01215540576",B21 0PL,55399,BIRMINGHAM,PANESAR MOTORS,{'$oid': '6413ca51080004ea81cb780f'},52.5019386,-1.9410766,Point
UNIT C,PARK LANE INDUSTRIAL ESTATE,,0,0,0,1,1,1,"_,0121 553 2709",B21 8LP,S001846,BIRMINGHAM,ANR MOT CENTRE LIMITED,{'$oid': '6413ca51080004ea81cb7810'},52.5109596,-1.9614956,Point
UNITS 3 AND 4,HOLYHEAD WAY,HANDSWORTH,0,0,0,1,1,1,"_,01215549199",B21 0LT,5093BP,BIRMINGHAM,FAST FORWARD GARAGE,{'$oid': '6413ca51080004ea81cb7811'},52.5063575,-1.9452297,Point
34 ROOKERY ROAD,HANDSWORTH,,0,0,0,1,0,1,"_,01215540112",B21 9NB,4158BM,BIRMINGHAM,DIRECT AUTOS REPAIRS (UK) LTD,{'$oid': '6413ca51080004ea81cb7812'},52.50533000000001,-1.940416,Point
32 ROOKERY ROAD,HANDSWORTH,,0,0,0,1,0,0,"_,0121 554 8001",B21 9NB,V107824,BIRMINGHAM,DIRECT MOTS,{'$oid': '6413ca51080004ea81cb7813'},52.5047169,-1.9403695,Point
292 SHORT HEATH ROAD,ERDINGTON,,0,0,0,1,0,0,"_,0121 3503252",B23 6LB,1ALN27,BIRMINGHAM,CAR & COMMERCIAL SERVICE CENTRE,{'$oid': '6413ca51080004ea81cb7814'},52.53126090000001,-1.8577752,Point
UNIT 3,REAR OF 296 SHORT HEATH ROAD,ERDINGTON,0,0,0,1,0,0,"_,07926-247247",B23 6LB,6156BU,BIRMINGHAM,1st STOP GARAGES LIMITED,{'$oid': '6413ca51080004ea81cb7815'},52.5312864,-1.8577697,Point
CHAPEL STREET,HANDSWORTH,,0,0,0,1,1,1,"_,0121 523 8034",B21 0PA,6300A1,BIRMINGHAM,CHAPEL STREET TYRE CENTRE,{'$oid': '6413ca51080004ea81cb7816'},52.501809,-1.9473401,Point
118A WATTVILLE RD.,HANDSWORTH,,0,0,0,1,0,0,"_,01215541164",B21 0DR,0962AM,BIRMINGHAM,BRITTAINS GARAGE,{'$oid': '6413ca51080004ea81cb7817'},52.5054721,-1.9557442,Point
47 CHURCH VALE,HANDSWORTH,,0,0,0,1,0,0,"_,01215541846",B20 3SG,8987BL,BIRMINGHAM,HANDSWORTH AUTO ENGINEERING,{'$oid': '6413ca51080004ea81cb7818'},52.5110851,-1.9159442,Point
264 OXHILL ROAD,HANDSWORTH,,0,0,0,1,0,0,"_,01215238600",B20 8ER,7246B1,BIRMINGHAM,WHEEL ALIGNMENT CENTRE,{'$oid': '6413ca51080004ea81cb7819'},52.5151075,-1.9447052,Point
15 TO 17 PERRY COMMON ROAD,ERDINGTON,,1,1,0,1,0,0,"_,0121 3732885",B23 7AB,5466B3,BIRMINGHAM,PERRY COMMON MOT CENTRE,{'$oid': '6413ca51080004ea81cb781a'},52.5319278,-1.8621545,Point
23 MARSH HILL,,ERDINGTON,0,0,0,1,0,0,"_,01213824488",B23 7DS,V101754,BIRMINGHAM,KWIK FIT,{'$oid': '6413ca51080004ea81cb781b'},52.5253828,-1.8603867,Point
1 TO 5 GRAVELLY LANE,ERDINGTON,,0,0,0,1,0,0,"_,0121 382 9798",B23 6UJ,1666BT,BIRMINGHAM,ADVANCED CAR TUNING TRADING AS AUTOHELP LTD,{'$oid': '6413ca51080004ea81cb781c'},52.5263728,-1.8423682,Point
158 SLADE ROAD,ERDINGTON,,0,0,0,1,0,1,"_,0121 327 2783",B23 7PX,V107921,BIRMINGHAM,ATS EUROMASTER LIMITED,{'$oid': '6413ca51080004ea81cb781d'},52.5141051,-1.8577808,Point
OMEGA ROAD,CHESTER ROAD,ERDINGTON,0,0,0,1,0,0,"_,0121 382 1222",B24 0QY,V108502,BIRMINGHAM,PAUL RIGBY LTD,{'$oid': '6413ca51080004ea81cb781e'},52.5204636,-1.8026389,Point
364-368 SLADE ROAD,ERDINGTON,,0,0,0,1,0,0,"_,01213844044",B23 7LA,0641B1,BIRMINGHAM,SLADE ROAD MOTS,{'$oid': '6413ca51080004ea81cb781f'},52.520153,-1.8574635,Point
144 BROMFORD LANE,ERDINGTON,,0,0,0,1,0,1,"_,0121 377 7800",B24 8DE,8335B1,BIRMINGHAM,MERCEDES-BENZ OF BIRMINGHAM,{'$oid': '6413ca51080004ea81cb7820'},52.5114048,-1.8330746,Point
254 WHEELWRIGHT ROAD,ERDINGTON,,1,1,0,1,1,1,"_,0121 384 8762",B24 8DT,V102973,BIRMINGHAM,EUROSTAR CAR & LIGHT COMMERCIAL LTD,{'$oid': '6413ca51080004ea81cb7821'},52.5092662,-1.8343088,Point
196 BROMFORD LANE,ERDINGTON,,0,0,0,1,0,0,"_,0121 328 0278",B24 8DP,54149,BIRMINGHAM,HI-Q,{'$oid': '6413ca51080004ea81cb7822'},52.5076439,-1.8324535,Point
359 - 375 TYBURN ROAD,,,0,0,0,1,1,1,"_,07960 271016",B24 8HJ,S003705,BIRMINGHAM,M S AUTO CENTRE CAR AND COMMERCIAL LTD,{'$oid': '6413ca51080004ea81cb7823'},52.508339,-1.8401968,Point
44 TYBURN ROAD,ERDINGTON,,0,0,0,1,1,1,"_,0121 439 8958",B24 8LA,V103029,BIRMINGHAM,MTC SERVICE CENTRE LTD,{'$oid': '6413ca51080004ea81cb7824'},52.50869909999999,-1.8572413,Point
6 WINGFOOT WAY,ERDINGTON,,0,0,0,1,0,0,"_,0121 7962433",B24 9HF,V103575,BIRMINGHAM,VARIOUS,{'$oid': '6413ca51080004ea81cb7825'},52.50959659999999,-1.8197114,Point
823 TYBURN ROAD,,,0,0,0,1,0,0,"_,0121 382 5566",B24 9NY,V109912,BIRMINGHAM,JARDINE AUTOMOTIVE LIMITED,{'$oid': '6413ca51080004ea81cb7826'},52.51306,-1.8259487,Point
825 TYBURN ROAD,,,0,0,0,1,0,0,"_,0121 377 2666",B24 9NY,V109913,BIRMINGHAM,JARDINE CARS LIMITED,{'$oid': '6413ca51080004ea81cb7827'},52.5137854,-1.8246655,Point
UNIT 18,GRAVELLY IND PARK,ERDINGTON,0,0,0,1,1,1,"_,0121 328 1850",B24 8HZ,S001700,BIRMINGHAM,TACHO - FIT LIMITED,{'$oid': '6413ca51080004ea81cb7828'},52.50649629999999,-1.8428039,Point
FORT PARKWAY,,,0,0,0,1,0,0,"_,0121 306 4000",B24 9HL,S003564,ERDINGTON,BENTLEY (SITE LOCATION),{'$oid': '6413ca51080004ea81cb7829'},52.5084297,-1.8148748,Point
32 SPRING LANE,ERDINGTON,,0,0,0,1,0,0,"_,0121 3738060",B24 9BX,4354BK,BIRMINGHAM,SPRING LANE SERVICE STATION (ERDINGTON) LTD,{'$oid': '6413ca51080004ea81cb782a'},52.5203417,-1.8340721,Point
821 TYBURN ROAD,,,0,0,0,1,0,0,"_,0121 285 7347",B24 9NY,V109822,BIRMINGHAM,CAZOO LTD,{'$oid': '6413ca51080004ea81cb782b'},52.5129715,-1.8270392,Point
FORT DUNLOP,4 WINGFOOT WAY,,0,0,0,1,0,0,"_,0121 3774200",B24 9HF,S003070,BIRMINGHAM,VARIOUS,{'$oid': '6413ca51080004ea81cb782c'},52.5091268,-1.8187399,Point
857 TYBURN ROAD,,,0,0,0,1,1,1,"_,0121 306 4410",B24 9NY,V104805,BIRMINGHAM,ROBINS & DAY,{'$oid': '6413ca51080004ea81cb782d'},52.5147833,-1.822122,Point
912 KINGSBURY ROAD,ERDINGTON,,1,1,0,1,1,1,"_,0121 377 7738",B24 9PY,1AKZ41,BIRMINGHAM,M S AUTO CENTRE LIMITED,{'$oid': '6413ca51080004ea81cb782e'},52.5186424,-1.8055644,Point
892 KINGSBURY ROAD,ERDINGTON,,0,0,0,1,0,0,"_,0121 3509901",B24 9PY,1ALZ24,BIRMINGHAM,FORMULA ONE AUTOCENTRES LIMITED,{'$oid': '6413ca51080004ea81cb782f'},52.5183058,-1.8067388,Point
UNIT G,991 KINGSBURY ROAD,ERDINGTON,0,0,0,1,0,0,"_,0121 377 7681",B24 9QB,55865,BIRMINGHAM,HALFORDS AUTOCENTRE,{'$oid': '6413ca51080004ea81cb7830'},52.51773129999999,-1.8022779,Point
971 KINGSBURY ROAD,,,0,0,0,1,0,1,"_,0121 377 3000",B24 9QB,9367AP,BIRMINGHAM,TRUSTFORD ERDINGTON,{'$oid': '6413ca51080004ea81cb7831'},52.5166585,-1.8076803,Point
UNIT AF37,HASTINGWOOD INDUSTRIAL PARK,"WOOD LANE, ERDINGTON",0,0,0,1,0,0,"_,0121 2701095",B24 9QR,1ALX51,BIRMINGHAM,WEST MIDLANDS SAAB SPECIALISTS,{'$oid': '6413ca51080004ea81cb7832'},52.5101346,-1.826246,Point
WOOD LANE,ERDINGTON,,0,0,0,1,0,0,"_,0121 377 7474",B24 9QL,S002130,BIRMINGHAM,ABBEY SERVICE CENTRE LIMITED,{'$oid': '6413ca51080004ea81cb7833'},52.511209,-1.8292095,Point
"UNIT C42, HASTINGWOOD INDUSTRIAL ESTATE",WOOD LANE,,0,0,0,1,1,1,"_,01213866799",B24 9QR,S003506,ERDINGTON,SMITHS MOTS,{'$oid': '6413ca51080004ea81cb7834'},52.5101346,-1.826246,Point
585 TYBURN ROAD,ERDINGTON,,0,0,0,1,0,0,"_,0121 382 0077",B24 9RX,51789,BIRMINGHAM,JOHNSONS CARS,{'$oid': '6413ca51080004ea81cb7835'},52.5122113,-1.8287585,Point
UNIT 2,GERALDINE ROAD,YARDLEY,0,0,0,1,0,0,"_,07910000650",B25 8BE,V109176,BIRMINGHAM,OAKLANDS MOT CENTRE,{'$oid': '6413ca51080004ea81cb7836'},52.4632557,-1.8256482,Point
UNIT 7A THE FORDROUGH,HEYBARNES CIRCUS,YARDLEY,0,0,0,1,1,1,"_,0121 772 7377",B25 8DL,V105133,BIRMINGHAM,HEYBARNES SERVICING LIMITED,{'$oid': '6413ca51080004ea81cb7837'},52.4633015,-1.8404088,Point
8 FORDROUGH,YARDLEY,,0,0,0,1,0,0,"_,0121 766 6254",B25 8DL,V108971,BIRMINGHAM,TIBURON AUTOMOTIVE,{'$oid': '6413ca51080004ea81cb7838'},52.46284,-1.8397395,Point
70 BERKELEY ROAD EAST,HAY MILLS,,0,0,0,1,0,0,"_,0121 772 7787",B25 8NP,50490,BIRMINGHAM,BERKELEY AUTO CENTRE LTD,{'$oid': '6413ca51080004ea81cb7839'},52.4643069,-1.8318354,Point
REAR OF 37 TO 39 STONEY LANE,YARDLEY,,0,0,0,1,0,0,"_,0121 784 7877",B25 8RE,6719BD,BIRMINGHAM,YEW TREE CENTRE,{'$oid': '6413ca51080004ea81cb783a'},52.4690155,-1.8103822,Point
1642 COVENTRY ROAD,YARDLEY,,0,0,0,1,0,0,"_,0121 706 5888",B26 1AN,49399,BIRMINGHAM,SWAN AUTOMOTIVE SERVICES LIMITED,{'$oid': '6413ca51080004ea81cb783b'},52.46207279999999,-1.8097356,Point
2059 COVENTRY ROAD,SHELDON,,1,1,0,0,0,0,"_,01217433506",B26 3DY,55877,BIRMINGHAM,SHELDON MOTOR CYCLES,{'$oid': '6413ca51080004ea81cb783c'},52.4537834,-1.791283,Point
2061 COVENTRY ROAD,SHELDON,,0,0,0,1,1,1,"_,0121 707 2626",B26 3DY,V103567,BIRMINGHAM,B26 MOT LTD,{'$oid': '6413ca51080004ea81cb783d'},52.4534535,-1.7914918,Point
2119 COVENTRY ROAD,SHELDON,,0,0,0,1,0,0,"_,01217222062",B26 3EA,55811,BIRMINGHAM,KWIK FIT,{'$oid': '6413ca51080004ea81cb783e'},52.4526111,-1.7869566,Point
COVENTRY ROAD,ELMDON,,0,0,0,1,0,0,"_,0121 667 8410",B26 3QS,V106022,SOLIHULL,VARIOUS,{'$oid': '6413ca51080004ea81cb783f'},52.4462763,-1.7484892,Point
18 SHEAF LANE,SHELDON,,0,0,0,1,0,0,"_,0121 742 5051",B26 3HD,7882AW,BIRMINGHAM,PLUME TYRE SERVICE SHELDON,{'$oid': '6413ca51080004ea81cb7840'},52.4525768,-1.7823043,Point
172 STOCKFIELD ROAD,ACOCKS GREEN,,0,0,0,1,0,0,"_,0121 7062327",B27 6AU,54749,BIRMINGHAM,GW MOTORS,{'$oid': '6413ca51080004ea81cb7841'},52.4565512,-1.8234485,Point
UNIT 15,"WYNFORD IND ESTATE, WYNFORD ROAD",ACOCKS GREEN,0,0,0,1,0,0,"_,0121 707 5441",B27 6JP,S002237,BIRMINGHAM,ACRE MOT & SERVICING LTD,{'$oid': '6413ca51080004ea81cb7842'},52.455831,-1.8208256,Point
28 SHEAF LANE,SHELDON,,0,0,0,1,0,0,"_,01217433434/07939268022",B26 3HD,1AKT99,BIRMINGHAM,SHEAF LANE AUTO CENTRE,{'$oid': '6413ca51080004ea81cb7843'},52.4529881,-1.7821922,Point
37-41 STATION ROAD,ACOCKS GREEN,,0,0,0,1,0,0,"_,0121 7065411",B27 6DH,2777A5,BIRMINGHAM,WESTLEY GARAGE LIMITED,{'$oid': '6413ca51080004ea81cb7844'},52.44818,-1.8221686,Point
69 TO 71 YARDLEY ROAD,ACOCKS GREEN,,0,0,0,1,1,1,"_,0121 708 2460",B27 6LG,V107723,BIRMINGHAM,J&N AUTOS LTD,{'$oid': '6413ca51080004ea81cb7845'},52.4522529,-1.8181862,Point
111 WESTLEY ROAD,ACOCKS GREEN,,0,0,0,1,0,0,"_,0121 707 3466",B27 7UW,55868,BIRMINGHAM,HALFORDS AUTOCENTRE,{'$oid': '6413ca51080004ea81cb7846'},52.445865,-1.8292017,Point
164 PRIORY ROAD,HALL GREEN,,0,0,0,1,1,1,"_,0121 474 5449",B28 0TB,54218,BIRMINGHAM,PRIORY SERVICE STATION,{'$oid': '6413ca51080004ea81cb7847'},52.4142799,-1.8560633,Point
1204 STRATFORD ROAD,HALL GREEN,,0,0,0,1,0,0,"_,0121 7776053",B28 8HN,1ALD24,BIRMINGHAM,SOUTHDELL GARAGES LTD,{'$oid': '6413ca51080004ea81cb7848'},52.43558489999999,-1.8463555,Point
BALDWINS LANE,HALL GREEN,,0,0,0,1,0,0,"_,0121 744 5453",B28 0XB,52994,BIRMINGHAM,BALDWINS LANE SERVICE STATION,{'$oid': '6413ca51080004ea81cb7849'},52.4167183,-1.8416438,Point
103 YORK ROAD,HALL GREEN,,0,0,0,1,0,0,"_,0121 778 1363",B28 8LH,55477,BIRMINGHAM,STONES GARAGE LTD,{'$oid': '6413ca51080004ea81cb784a'},52.4390233,-1.8420372,Point
1 SCHOOL ROAD,,HALLGREEN,0,0,0,1,0,0,"_,01217773353",B28 8JG,V101748,BIRMINGHAM,KWIK FIT,{'$oid': '6413ca51080004ea81cb784b'},52.4348778,-1.8459658,Point
UNIT 2,EWHURST AVENUE,SELLY OAK,0,0,0,1,0,1,"_,0121 472 4300",B29 6EY,V107798,BIRMINGHAM,HARBORNE GARAGE LIMITED,{'$oid': '6413ca51080004ea81cb784c'},52.4394709,-1.9329022,Point
291 SHAFTSMOOR LANE,HALL GREEN,,0,0,0,1,0,0,"_,0121 721 8632",B28 8SL,3538BU,BIRMINGHAM,IAN FARRELL MOTOR COMPANY,{'$oid': '6413ca51080004ea81cb784d'},52.4421437,-1.8450385,Point
1 SHENLEY GREEN,NORTHFIELD,,0,0,0,1,0,0,"_,0121 4752539",B29 4HH,55862,BIRMINGHAM,MANOR MOTOR COMPANY,{'$oid': '6413ca51080004ea81cb784e'},52.4267211,-1.9730542,Point
1514 PERSHORE ROAD,,,0,0,0,1,0,0,"_,01214594575",B30 2NW,54150,BIRMINGHAM,RIK FIT AUTOCENTRE,{'$oid': '6413ca51080004ea81cb784f'},52.4245908,-1.9210387,Point
UNIT 3B 1082 PERSHORE ROAD,STIRCHLEY,,0,0,0,1,1,1,"_,07597 752530",B30 2YG,S003969,BIRMINGHAM,SELLYOAK-STIRCHLEY  TYRES LIMITED,{'$oid': '6413ca51080004ea81cb7850'},52.4348326,-1.9170683,Point
1579 PERSHORE ROAD,STIRCHLEY,,0,0,0,1,0,0,"_,01212742555",B30 2JF,S003824,BIRMINGHAM,FORMULA ONE AUTOCENTRES LIMITED,{'$oid': '6413ca51080004ea81cb7851'},52.4225821,-1.9219204,Point
1 NORTHFIELD ROAD,COTTERIDGE,,0,0,0,1,0,0,"_,0121 4582501",B30 1JD,53235,BIRMINGHAM,COTTERIDGE CAR CARE,{'$oid': '6413ca51080004ea81cb7852'},52.4172648,-1.931441,Point
116 RADDLEBARN ROAD,SELLY OAK,,0,0,0,1,0,0,"_,0121 4727139",B29 6HQ,53974,BIRMINGHAM,SMALLBONE & SON SERVICE STATION LTD,{'$oid': '6413ca51080004ea81cb7853'},52.4375794,-1.9282186,Point
SELLY WHARF,BRISTOL ROAD,SELLY OAK,0,0,0,1,0,0,"_,0121 414 1919",B29 6LR,6349B5,BIRMINGHAM,LOOKERS SELLY OAK,{'$oid': '6413ca51080004ea81cb7854'},52.4407211,-1.938696,Point
249 UMBERSLADE ROAD,STIRCHLEY,,0,0,0,1,0,0,"_,0121 458 4310",B30 2YX,55050,BIRMINGHAM,WF PYE MOTOR COMPANY LIMITED,{'$oid': '6413ca51080004ea81cb7855'},52.43148370000001,-1.9214509,Point
THE SANDPITS,ACACIA ROAD,BOURNVILLE,0,0,0,1,0,0,"_,0121 4723848",B30 2AH,53992,BIRMINGHAM,HOLLIER & SONS,{'$oid': '6413ca51080004ea81cb7856'},52.433031,-1.9364304,Point
1840 PERSHORE ROAD,COTTERIDGE,,0,0,0,1,0,0,"_,0121 458 4056",B30 3AS,54913,BIRMINGHAM,HALFORDS AUTOCENTRE,{'$oid': '6413ca51080004ea81cb7857'},52.4163662,-1.927596,Point
UNIT 3 HUDSONS TRADING ESTATE,HUDSONS DRIVE,COTTERIDGE,1,1,0,1,0,0,"_,0121 4333088",B30 3BD,8016BJ,BIRMINGHAM,PARTRIDGE MOTORS LTD,{'$oid': '6413ca51080004ea81cb7858'},52.41733869999999,-1.9245091,Point
1852 - 1854 PERSHORE ROAD,COTTERIDGE,,0,0,0,1,0,0,"_,01214861515",B30 3AS,V101824,BIRMINGHAM,KWIK FIT,{'$oid': '6413ca51080004ea81cb7859'},52.4161765,-1.9281885,Point
187 DAWLISH ROAD,SELLY OAK,,0,0,0,1,0,0,"_,0121 472 1005",B29 7AW,6005B3,BIRMINGHAM,SELLY OAK GARAGE,{'$oid': '6413ca51080004ea81cb785a'},52.4419789,-1.9297741,Point
12 PRINCE ROAD,KINGS NORTON,,0,0,0,1,0,0,"_,07971 753152",B30 3HB,S002407,BIRMINGHAM,AUTO WORKS SERVICE CENTRE LTD,{'$oid': '6413ca51080004ea81cb785b'},52.4120936,-1.9273764,Point
7 LIFFORD LANE,,KINGS NORTON,1,1,0,1,0,1,"_,0121 415 7500",B30 3DY,V106662,BIRMINGHAM,IMPACT REPAIR CENTRE LIMITED,{'$oid': '6413ca51080004ea81cb785c'},52.4201689,-1.9209286,Point
648 BRISTOL ROAD SOUTH,NORTHFIELD,,0,0,0,1,0,0,"_,0121 4760185",B31 2JR,9030BE,BIRMINGHAM,NORTHFIELD CAR CARE CENTRE,{'$oid': '6413ca51080004ea81cb785d'},52.4178533,-1.9663079,Point
96 FORDHOUSE LANE,STIRCHLEY,,0,0,0,1,0,0,"_,0121 459 1631",B30 3AH,55854,BIRMINGHAM,CONAGHAN AUTO CENTRE LTD,{'$oid': '6413ca51080004ea81cb785e'},52.4238017,-1.9163563,Point
UNITS 1-3,1653 PERSHORE ROAD,STIRCHLEY,1,1,1,1,0,0,"_,0121 433 3536",B30 3DR,1ALA52,BIRMINGHAM,JT MOTORS,{'$oid': '6413ca51080004ea81cb785f'},52.420248,-1.9220276,Point
KINGS NORTON BUSINESS CENTRE,PERSHORE ROAD SOUTH,KINGS NORTON,0,0,0,1,1,1,"_,0121 433 3030",B30 3ES,V103526,BIRMINGHAM,BRISTOL STREET MOTORS,{'$oid': '6413ca51080004ea81cb7860'},52.4167974,-1.9208493,Point
96 FORDHOUSE LANE,,,0,0,0,1,0,0,"_,0121 458 1515",B30 3AH,S002210,BIRMINGHAM,BRAMPTONS AUTO CENTRE,{'$oid': '6413ca51080004ea81cb7861'},52.4238017,-1.9163563,Point
UNIT 8 AVERY DELL INDUSTRIAL ESTATE,LIFFORD LANE,,0,0,0,1,0,0,"_,0121 451 2121",B30 3DZ,V105748,BIRMINGHAM,MOORE MOTORS LIMITED,{'$oid': '6413ca51080004ea81cb7862'},52.4195631,-1.9208661,Point
23 - 25 PRINCE ROAD,KINGS NORTON BUSINESS CENTRE,KINGS NORTON,0,0,0,1,0,0,"_,0121 459 9222",B30 3HB,S000657,BIRMINGHAM,DTB MOTOR SERVICES LTD,{'$oid': '6413ca51080004ea81cb7863'},52.41240029999999,-1.9260521,Point
UNIT 4 PARKVIEW TRADING ESTATE,107 PERSHORE ROAD SOUTH,KINGS NORTON,0,0,0,1,0,1,"_,07773 357111",B30 3JX,V107171,BIRMINGHAM,MAJORS GARAGE,{'$oid': '6413ca51080004ea81cb7864'},52.412127,-1.9310121,Point
640 BRISTOL ROAD SOUTH,NORTHFIELD,,0,0,0,1,0,0,"_,0121 476 2287",B31 2JR,S001403,BIRMINGHAM,NORTHFIELD TYRES,{'$oid': '6413ca51080004ea81cb7865'},52.4179381,-1.9662155,Point
1179A BRISTOL ROAD SOUTH,NORTHFIELD,,1,1,0,0,0,0,"_,0121 4757599",B31 2SL,1ALO41,BIRMINGHAM,REDLINE MOTORCYCLES,{'$oid': '6413ca51080004ea81cb7866'},52.4047968,-1.9791521,Point
UNIT 4,WESTWAY INDUSTRIAL ESTATE,,0,0,0,1,0,0,"_,0121 476 1330",B31 3PQ,S002435,BIRMINGHAM,WESTWAY M.O.T CENTRE LIMITED,{'$oid': '6413ca51080004ea81cb7867'},52.3948918,-1.9595277,Point
1163 BRISTOL ROAD SOUTH,NORTHFIELD,,0,0,0,1,0,0,"_,0121 475 6000",B31 2SL,V104492,BIRMINGHAM,A C B MOTOR REPAIRS,{'$oid': '6413ca51080004ea81cb7868'},52.4053638,-1.9788977,Point
161 ALVECHURCH ROAD,,WEST HEATH,0,0,0,1,1,1,"_,0121 477 0008",B31 3PN,S002554,BIRMINGHAM,MECHANICAL CAR SERVICES,{'$oid': '6413ca51080004ea81cb7869'},52.3943276,-1.9606871,Point
945 BRISTOL ROAD SOUTH,NORTHFIELD,,0,0,0,1,0,0,"_,0121 477 5535",B31 2QT,V105852,BIRMINGHAM,CENTRAL AUTOMOTIVE REPAIRS LTD,{'$oid': '6413ca51080004ea81cb786a'},52.4113884,-1.9735605,Point
71 TURVES GREEN,NORTHFIELD,,0,0,0,1,0,0,"_,0121 4755719",B31 4AH,1705A2,BIRMINGHAM,TURVES GREEN SERVICE STATION LIMITED,{'$oid': '6413ca51080004ea81cb786b'},52.40315769999999,-1.966685,Point
125 LONGBRIDGE LANE,NORTHFIELD,,0,0,0,1,0,0,"_,0121 4751310",B31 4LF,9600AX,BIRMINGHAM,LODGE HILL AUTOS,{'$oid': '6413ca51080004ea81cb786c'},52.3955162,-1.9804068,Point
UNIT 1 WOODTHORPE HOUSE,CLAPGATE LANE,WOODGATE,0,0,0,1,0,1,"_,0121 421 4333",B32 3BU,V107266,BIRMINGHAM,AUTO TECH (BIRMINGHAM) LTD,{'$oid': '6413ca51080004ea81cb786d'},52.4429127,-2.0006465,Point
CORNER GROVELY LANE,,,0,0,0,1,0,0,"_,01214767376",B31 4QQ,V103882,LONGBRIDGE,KWIK FIT,{'$oid': '6413ca51080004ea81cb786e'},52.3917248,-1.9708404,Point
UNIT 13 TILE CROSS TRADING ESTATE,TILE CROSS ROAD,MARSTON GREEN,0,0,0,1,0,0,"_,0121 788 3565",B33 0NN,V102331,BIRMINGHAM,GARRETTS GREEN SERVICE STATION,{'$oid': '6413ca51080004ea81cb786f'},52.47288469999999,-1.7654193,Point
UNIT 16,TILE CROSS ROAD,TILE CROSS TRADING ESTATE,0,0,0,1,0,0,"_,0121 779 5844",B33 0NW,55261,BIRMINGHAM,AUTOCARE,{'$oid': '6413ca51080004ea81cb7870'},52.47288469999999,-1.7654193,Point
167 JIGGINS LANE,BARTLEY GREEN,,0,0,0,1,0,0,"_,0121 4753108",B32 3EP,54707,BIRMINGHAM,BARTLEY GREEN SERVICE CENTRE,{'$oid': '6413ca51080004ea81cb7871'},52.4393371,-1.9931124,Point
UNIT 1 STECHFORD TRADING ESTATE,LYNDON ROAD,STECHFORD,0,0,0,1,0,0,"_,0121 789 6868",B33 8BU,4199B3,BIRMINGHAM,HRS TEST CENTRE,{'$oid': '6413ca51080004ea81cb7872'},52.4843596,-1.8057616,Point
THE GARAGE,SCHOOL LANE,YARDLEY,0,0,0,1,0,0,"_,07967058318",B33 8PD,51195,BIRMINGHAM,MIDLANDS MOTORS LIMITED,{'$oid': '6413ca51080004ea81cb7873'},52.4754337,-1.8014818,Point
MEADWAY,,,0,0,0,1,0,0,"_,01217848525",B33 8NP,V102833,BIRMINGHAM,KWIK FIT,{'$oid': '6413ca51080004ea81cb7874'},52.4778798,-1.7840834,Point
2 NORTHCOTE ROAD,STECHFORD,,0,0,0,1,1,1,"_,07779 060772",B33 9BE,V109142,BIRMINGHAM,RACKS AUTO FLEET CENTRE,{'$oid': '6413ca51080004ea81cb7875'},52.4862608,-1.8117815,Point
8 - 12 RIVERSIDE DRIVE,STECHFORD,,0,0,0,1,0,0,"_,0121 770 5444",B33 9BF,S000158,BIRMINGHAM,C W VEHICLE SERVICE LIMITED,{'$oid': '6413ca51080004ea81cb7876'},52.48603170000001,-1.8152758,Point
REAR OF 111 FLAXLEY ROAD,STECHFORD,,0,0,0,1,1,1,"_,0121 783 2444",B33 9HQ,V110271,BIRMINGHAM,STECHFORD MOTS AND REPAIRS,{'$oid': '6413ca51080004ea81cb7877'},52.487483,-1.8071555,Point
40 GRANBY AVENUE,GARRETTS GREEN,,0,0,0,1,1,1,"_,0121 785 3550",B33 0TJ,S003645,BIRMINGHAM,BRISTOL STREET MOTORS GRANBY AVENUE FORD,{'$oid': '6413ca51080004ea81cb7878'},52.4747721,-1.7754055,Point
UNIT 3,THE MILL WALK,NORTHFIELD,0,0,0,1,0,0,"_,0121 477 7775",B31 4HL,V104449,BIRMINGHAM,M G R SERVICES,{'$oid': '6413ca51080004ea81cb7879'},52.40278240000001,-1.9737899,Point
1 GOSSEY LANE,KITTS GREEN,,0,0,0,1,0,0,"_,01217842078",B33 0DU,S001490,BIRMINGHAM,PRO FIT BAYS LTD,{'$oid': '6413ca51080004ea81cb787a'},52.4785198,-1.7774916,Point
UNIT 11 TILE CROSS TRADING ESTATE,TILE CROSS ROAD,,0,0,0,1,0,0,"_,0121 779 7710",B33 0NN,V101318,BIRMINGHAM,DRIVETEC MOT AND TYRES LTD,{'$oid': '6413ca51080004ea81cb787b'},52.47288469999999,-1.7654193,Point
UNIT 2,BANNERLEY ROAD,,0,0,0,1,1,1,"_,01217862277",B33 0SL,S003542,BIRMINGHAM,AUTOSPOT,{'$oid': '6413ca51080004ea81cb787c'},52.4762801,-1.7779087,Point
THE RADLEYS,SHELDON,,0,0,0,1,0,0,"_,0121 742 1142",B33 0QX,54893,BIRMINGHAM,HALFORDS AUTOCENTRE,{'$oid': '6413ca51080004ea81cb787d'},52.465892,-1.7733707,Point
WOODLANDS CAMPUS,AUCKLAND DRIVE,SMITHS WOOD,0,0,0,1,0,0,"_,0121 678 7000",B36 0NF,S000265,SOLIHULL,SOLIHULL COLLEGE,{'$oid': '6413ca51080004ea81cb787e'},52.496116,-1.7387797,Point
TURNHOUSE ROAD,CASTLE VALE,,0,0,0,1,0,0,"_,01217476326",B35 6PR,54178,BIRMINGHAM,CASTLE VALE SERVICE STATION LTD,{'$oid': '6413ca51080004ea81cb787f'},52.5219906,-1.7817503,Point
10 SAXON WAY,CHELMSLEY WOOD,,0,0,0,1,1,1,"_,0121 788 8860",B37 5AY,1ALB12,BIRMINGHAM,CAR TECH (SERVICE CENTRE),{'$oid': '6413ca51080004ea81cb7880'},52.4831982,-1.7529606,Point
207-209 BRADFORD ROAD,CASTLE BROMWICH,SOLIHULL,0,0,0,1,0,0,"_,0121 748 4800",B36 9AG,V102251,BIRMINGHAM,THE AUTO WORKSHOP,{'$oid': '6413ca51080004ea81cb7881'},52.5022276,-1.7770387,Point
UNIT 12 BURHILL WAY,,,0,0,0,1,0,0,"_,0121 770 1898",B37 6RF,S000642,SOLIHULL,MTR TYRES LIMITED,{'$oid': '6413ca51080004ea81cb7882'},52.4898649,-1.7387127,Point
UNIT 7,CHELMSLEY WOOD IND ESTATE,WATERLOO AVENUE,0,0,0,1,0,0,"_,0121 7701201",B37 6QQ,3088BN,BIRMINGHAM,AUTO - Q,{'$oid': '6413ca51080004ea81cb7883'},52.4889908,-1.7392636,Point
UNIT 4 CROFT INDUSTRIAL ESTATE,DUNSTER ROAD,CHELMSLEY WOOD,0,0,0,1,0,0,"_,0121 770 4345",B37 7SU,V101462,BIRMINGHAM,WILLIAMS MOTOR SERVICES,{'$oid': '6413ca51080004ea81cb7884'},52.4747775,-1.7265907,Point
28 REDDITCH ROAD,KINGS NORTON,,0,0,0,1,0,1,"_,01214511132",B38 8RN,S004199,BIRMINGHAM,RIK FIT AUTOCENTRE,{'$oid': '6413ca51080004ea81cb7885'},52.4066275,-1.9278064,Point
UNIT 1A,SAXON WAY,CHELMSLEY WOOD,1,1,0,1,1,1,"_,0121 770 9960",B37 5AX,V109281,BIRMINGHAM,EAST BIRMINGHAM AUTOS LIMITED,{'$oid': '6413ca51080004ea81cb7886'},52.4832262,-1.7551617,Point
428 REDDITCH ROAD,KINGS NORTON,,0,0,0,1,0,0,"_,0121 2444343",B38 8NA,55107,BIRMINGHAM,REDHILL GARAGE,{'$oid': '6413ca51080004ea81cb7887'},52.396869,-1.9488197,Point
R/O 70 THE GREEN,KINGS NORTON,,1,1,0,0,0,0,"_,0121 4583074",B38 8RU,2173A0,BIRMINGHAM,C & B MANN,{'$oid': '6413ca51080004ea81cb7888'},52.40754829999999,-1.9297343,Point
SAXON WAY,CHELMSLEY WOOD,,0,0,0,1,1,1,"_,0121 770 9377",B37 5AY,3927A1,BIRMINGHAM,KINGSHURST AUTOMOTIVE LTD,{'$oid': '6413ca51080004ea81cb7889'},52.4834789,-1.7543285,Point
ECKERSALL ROAD,KINGS NORTON,,0,0,0,1,1,1,"_,0121 459 6866",B38 8SS,V107830,BIRMINGHAM,VIKING AUTO SPARES AND REPAIRS LIMITED,{'$oid': '6413ca51080004ea81cb788a'},52.4118588,-1.9378705,Point
390 COLLEGE ROAD,PERRY BARR,,0,0,0,1,0,0,"_,0121 272 9370",B44 0HH,V100157,BIRMINGHAM,SUTTON PARK MOTOR COMPANY LIMITED,{'$oid': '6413ca51080004ea81cb788b'},52.5348914,-1.8778017,Point
UNIT 1 SITE D,20 TAMESIDE WAY,PERRY BARR,0,0,0,1,0,0,"_,0121 3569515",B42 2UB,V107154,BIRMINGHAM,HALFORDS AUTOCENTRE,{'$oid': '6413ca51080004ea81cb788c'},52.5259829,-1.8936072,Point
61 COLLEGE ROAD,PERRY BARR,,0,0,0,1,0,0,"_,0121 356 4723",B44 8DP,50197,BIRMINGHAM,PERRY GARAGE,{'$oid': '6413ca51080004ea81cb788d'},52.5321189,-1.886376,Point
LAWLEY MIDDLEWAY,,,0,0,0,1,0,0,"_,0121 703 6600",B4 7XT,1AMF17,BIRMINGHAM,JOHNSONS CARS,{'$oid': '6413ca51080004ea81cb788e'},52.4813411,-1.877871,Point
686 ALDRIDGE ROAD,GREAT BARR,,0,0,0,1,0,0,"_,0121 3602184",B44 8NJ,49266,BIRMINGHAM,BROOKLYN GARAGE LIMITED,{'$oid': '6413ca51080004ea81cb788f'},52.53961950000001,-1.8961201,Point
249 WALSALL ROAD,,PERRY BARR,0,0,0,1,0,0,"_,01213560381",B42 1TY,V103441,BIRMINGHAM,KWIK FIT,{'$oid': '6413ca51080004ea81cb7890'},52.5256915,-1.9039941,Point
1180 ALDRIDGE ROAD,GREAT BARR,,0,0,0,1,0,0,"_,0121 3608050",B44 8PE,V104070,BIRMINGHAM,KM SERVICES AND SON LTD,{'$oid': '6413ca51080004ea81cb7891'},52.5518678,-1.9071938,Point
70 GREENHOLM ROAD,GREAT BARR,,0,0,1,1,0,0,"_,0121 356 4106",B44 8HL,2194AB,BIRMINGHAM,WELLSBURYS GARAGE LIMITED,{'$oid': '6413ca51080004ea81cb7892'},52.5354839,-1.8939619,Point
40 CHURCH ROAD,PERRY BARR,,0,0,0,1,0,0,"_,0121 356 0033",B42 2LB,V104143,BIRMINGHAM,CLARK AND EVANS SERVICE CENTRE LIMITED,{'$oid': '6413ca51080004ea81cb7893'},52.52669539999999,-1.8991488,Point
UNIT 1 PAPERMILL END,GREAT BARR,,0,0,0,1,0,0,"_,0121 3560124",B44 8NA,0495BK,BIRMINGHAM,MOT TESTING SERVICES,{'$oid': '6413ca51080004ea81cb7894'},52.5340414,-1.8983636,Point
1194 ALDRIDGE ROAD,OSCOTT,,1,1,0,1,1,1,"_,07581273162",B44 8PE,S003037,BIRMINGHAM,GREAT BARR MOT AND SERVICE CENTRE,{'$oid': '6413ca51080004ea81cb7895'},52.5514916,-1.9068025,Point
UNIT 5 BILTON INDUSTRIAL ESTATE,5 STOCKMANS CLOSE,,0,0,0,1,1,1,"_,0121 459 2620",B38 9TS,V102556,BIRMINGHAM,MONUMENT MOTOR SERVICES LIMITED,{'$oid': '6413ca51080004ea81cb7896'},52.3968721,-1.9374168,Point
27 TOWER HILL,,,0,0,0,1,0,0,"_,07966388384",B42 1LG,S002778,BIRMINGHAM,TOWERHILL MOT CENTRE LTD,{'$oid': '6413ca51080004ea81cb7897'},52.5337231,-1.9196911,Point
CHURCH ROAD,PERRY BARR,,0,0,0,1,0,1,"_,0121 356 6000",B42 2LW,S003484,BIRMINGHAM,TT AUTO CENTRES LTD,{'$oid': '6413ca51080004ea81cb7898'},52.5269954,-1.9056226,Point
UNIT 8 FARROW ROAD IND ESTATE,SHADY LANE,GREAT BARR,1,1,0,0,0,0,"_,0121 3600400",B44 9ER,1ALC15,BIRMINGHAM,DAVE THE FRAME,{'$oid': '6413ca51080004ea81cb7899'},52.5534366,-1.8943508,Point
UNITS 3 TO 5 CENTURY INDUSTRIAL ESTATE,SHADY LANE,GREAT BARR,0,0,0,1,0,0,"_,0121 360 6170",B44 9ER,6910B0,BIRMINGHAM,STREETLY MOTOR SERVICES LIMITED,{'$oid': '6413ca51080004ea81cb789a'},52.5510063,-1.8981663,Point
UNIT 6-9,FARROW ROAD INDUSTRIAL ESTATE,GREAT BARR,0,0,0,1,0,0,"_,01213604785",B44 9ER,7574BJ,BIRMINGHAM,SUPERCRUISE AUTO CENTRE,{'$oid': '6413ca51080004ea81cb789b'},52.5534366,-1.8943508,Point
KINGS ROAD,,,0,0,0,1,0,0,"_,0121 360 7510",B44 9HW,50493,BIRMINGHAM,REGAL SERVICE STATION,{'$oid': '6413ca51080004ea81cb789c'},52.5543499,-1.8934107,Point
594 KINGSTANDING ROAD,KINGSTANDING,,0,0,0,1,0,0,"_,0121 373 9911",B44 9SH,55084,BIRMINGHAM,KINGSTANDING GARAGE,{'$oid': '6413ca51080004ea81cb789d'},52.5470159,-1.8852214,Point
UNIT 10 SELECTA AVENUE,GREAT  BARR,,0,0,0,1,0,0,"_,0121 360 2911",B44 9XA,V107388,BIRMINGHAM,PALMERS PERFORMANCE CARS LIMITED,{'$oid': '6413ca51080004ea81cb789e'},52.55050929999999,-1.9029166,Point
UNIT 1,1622 BRISTOL ROAD SOUTH,REDNAL,0,0,0,1,1,1,"_,0121 624 6060",B45 9TY,V106383,BIRMINGHAM,DRYDEN CITROEN,{'$oid': '6413ca51080004ea81cb789f'},52.39500409999999,-1.9948051,Point
UNIT 5 COLESHILL TRADE PARK,STATION ROAD,COLESHILL,1,1,0,1,0,0,"_,01675 462311",B46 1AT,V104757,BIRMINGHAM,HAPPY DAYS AUTOMOTIVE LTD,{'$oid': '6413ca51080004ea81cb78a0'},52.5098746,-1.7075591,Point
11 WHETTY LANE,RUBERY,REDNAL,0,0,0,1,0,0,"_,01214533362",B45 9DR,54791,BIRMINGHAM,RUBERY GARAGE SERVICES LTD,{'$oid': '6413ca51080004ea81cb78a1'},52.3916376,-2.0230589,Point
"UNIT 1, HEATH FARM",ALCESTER R0AD,WYTHALL,0,0,0,1,0,0,"_,01564 822 288",B47 6AJ,S001548,BIRMINGHAM,,{'$oid': '6413ca51080004ea81cb78a2'},52.3721781,-1.8870607,Point
ALCESTER ROAD,WYTHALL,,0,0,0,1,0,0,"_,01564 823146",B47 6AP,51103,BIRMINGHAM,EDGINTONS OF INKFORD,{'$oid': '6413ca51080004ea81cb78a3'},52.3693244,-1.887397,Point
UNIT 33,STATION ROAD,COLESHILL,0,0,0,1,0,0,"_,01675 463469",B46 1JP,55253,BIRMINGHAM,FC MOTORS,{'$oid': '6413ca51080004ea81cb78a4'},52.5132296,-1.7109332,Point
UNIT 5,LION GARAGE,ALCESTER ROAD,0,0,0,1,0,0,"_,01564 824996",B48 7JA,V106035,PORTWAY,NEWMAN MOTOR ENGINEERS,{'$oid': '6413ca51080004ea81cb78a5'},52.3480722,-1.8808401,Point
COLESHILL WORKSHOP,UNIT 6,COLESHILL HEATH ROAD,0,0,0,1,1,1,"_,01675464888",B46 3HL,55858,COLESHILL,COUNTY FLEET MAINTENANCE,{'$oid': '6413ca51080004ea81cb78a6'},52.4745054,-1.7221584,Point
UNITS 13 TO 15 TYTHING ROAD EAST,FOREST INDUSTRIAL ESTATE,,0,0,0,1,0,0,"_,07545981192",B49 6ES,V107475,ALCESTER,T L AUTOMOTIVE LIMITED,{'$oid': '6413ca51080004ea81cb78a7'},52.2248453,-1.8665063,Point
UNIT 3 LICHFIELD ROAD,WATER ORTON,,1,1,0,0,0,0,"_,0121 748 0000",B46 1NU,V105649,BIRMINGHAM,CENTRAL WHEEL COMPONENTS LTD,{'$oid': '6413ca51080004ea81cb78a8'},52.514505,-1.71823,Point
MARSH LANE,WATER ORTON,,1,1,0,1,1,1,"_,0121 747 9966",B46 1NW,V106300,BIRMINGHAM,BIRMINGHAM MOTORIST CENTRE LIMITED,{'$oid': '6413ca51080004ea81cb78a9'},52.5210589,-1.7339219,Point
UNIT 3 OXFORD COURT,OXFORD STREET,DIGBETH,0,0,0,1,1,1,"_,0121 666 7754",B5 5NF,V109348,BIRMINGHAM,DIRECT MOT CENTRE LTD,{'$oid': '6413ca51080004ea81cb78aa'},52.4760466,-1.8874104,Point
EVESHAM ROAD,,,0,0,0,1,0,0,"_,01789764491",B49 5DW,53042,ALCESTER,HILLS RETAIL LIMITED,{'$oid': '6413ca51080004ea81cb78ab'},52.2129563,-1.8743644,Point
UNIT 7 PORTWAY MOTOR CENTRE,PORTWAY,,1,1,0,1,1,1,"_,01564 822283",B48 7JA,V106939,BIRMINGHAM,GS AUTOS LTD,{'$oid': '6413ca51080004ea81cb78ac'},52.349184,-1.8813293,Point
UNIT 1,LYEBRIDGE BUSINESS PARK,,0,0,0,1,0,0,"_,0121 445 5560",B48 7RT,V109298,REDDITCH,SMITHS OF ALVECHURCH,{'$oid': '6413ca51080004ea81cb78ad'},52.3428641,-1.9545401,Point
18 KENT STREET,,,0,0,0,1,1,1,"_,0121 692 1541",B5 6RD,V103176,BIRMINGHAM,NEWBRIDGE AUTO CENTRE (BIRMINGHAM) LIMITED,{'$oid': '6413ca51080004ea81cb78ae'},52.4726576,-1.8961381,Point
UNIT 5,STATION ROAD,,0,0,0,1,0,0,"_,01675 467146",B46 1HT,1ALI85,COLESHILL,SPANNERS AUTOCENTRES (UK) LTD,{'$oid': '6413ca51080004ea81cb78af'},52.5115257,-1.7076843,Point
34 COVENTRY STREET,,,0,0,0,1,0,0,"_,01216326116",B5 5NH,1ALF55,BIRMINGHAM,HURST STREET GARAGE,{'$oid': '6413ca51080004ea81cb78b0'},52.4764659,-1.8872421,Point
UNIT 16 & 16A,TYTHING ROAD EAST,ARDEN FOREST,1,1,0,0,0,0,"_,01789 400222",B49 6ES,V100957,ALCESTER,ARDEN MOTORCYCLES LIMITED,{'$oid': '6413ca51080004ea81cb78b1'},52.2248481,-1.866487,Point
UNIT 3,ARDEN BUSINESS CENTRE,ARDEN ROAD,0,0,0,1,0,0,"_,01789 603199",B49 6HW,V110075,ALCESTER,ECLIPSE TYRE SERVICES,{'$oid': '6413ca51080004ea81cb78b2'},52.2257207,-1.8693675,Point
UNIT 2,ANDOVER STREET,DIGBETH,0,0,0,1,0,0,"_,0121 633 3153",B5 5RG,55486,BIRMINGHAM,ANDOVER M O T CENTRE,{'$oid': '6413ca51080004ea81cb78b3'},52.48016579999999,-1.8860427,Point
BORDESLEY STREET,,,0,0,0,1,0,0,"_,0121 643 6211",B5 5PN,55296,BIRMINGHAM,WHITTAKER FLEET CARE LTD,{'$oid': '6413ca51080004ea81cb78b4'},52.4777263,-1.8861546,Point
156 TO 182 BRISTOL STREET,,,0,0,0,1,0,1,"_,01216666000",B5 7AZ,4748BA,BIRMINGHAM,BRISTOL STREET BIRMINGHAM,{'$oid': '6413ca51080004ea81cb78b5'},52.4691631,-1.9000416,Point
9 BEECH TREE PARK,WATERLOO ESTATE,,0,0,0,1,0,0,"_,07834 059016",B50 4JF,V102542,BIDFORD ON AVON,BIDFORD GARAGE AND GARDEN SERVICES LIMITED,{'$oid': '6413ca51080004ea81cb78b6'},52.1737718,-1.8497087,Point
95 HIGH STREET,BIDFORD ON AVON,,0,0,0,1,0,0,"_,01789 773363",B50 4HA,4055A5,ALCESTER,AVON AUTO CENTRE,{'$oid': '6413ca51080004ea81cb78b7'},52.1638376,-1.8620768,Point
19 & 20 WATERLOO PARK,WATERLOO INDUSTRIAL ESTATE,,0,0,0,1,0,0,"_,01789 773 589",B50 4JH,5524BP,BIDFORD ON AVON,HOPKINS MOTORS LTD,{'$oid': '6413ca51080004ea81cb78b8'},52.1718982,-1.8506429,Point
UNIT 3 EXPRESSWAY INDUSTRIAL ESTATE,BRACEBRIDGE STREET,ASTON,0,0,0,1,1,1,"_,01213337770",B6 4NE,V102176,BIRMINGHAM,AUTO MOTO,{'$oid': '6413ca51080004ea81cb78b9'},52.49372959999999,-1.8890605,Point
ST. STEPHENS STREET,,,0,0,0,1,1,1,"_,0121 260 3000",B6 4RG,1ALP36,BIRMINGHAM,VOLKSWAGEN VAN CENTRE BIRMINGHAM,{'$oid': '6413ca51080004ea81cb78ba'},52.4949063,-1.8942474,Point
UNIT 19B,BIDAVON INDUSTRIAL ESTATE,,0,0,0,1,1,1,"_,01789 772089",B50 4JN,V102744,BIDFORD ON AVON,CROSS MOTOR ENGINEERING LIMITED,{'$oid': '6413ca51080004ea81cb78bb'},52.17344370000001,-1.8539344,Point
318 WITTON ROAD,,,0,0,0,1,0,0,"_,0121 328 7998",B6 6NZ,V104501,BIRMINGHAM,WITTON CAR CARE CENTRE,{'$oid': '6413ca51080004ea81cb78bc'},52.5094137,-1.8908712,Point
1 BICKFORD ROAD,,WITTON,0,0,0,1,0,0,"_,0121 328 2229",B6 7EE,V101544,BIRMINGHAM,FG AUTO SOLUTIONS LTD,{'$oid': '6413ca51080004ea81cb78bd'},52.5106458,-1.8777446,Point
338-358 WITTON ROAD,ASTON,,0,0,0,1,0,0,"_,01213270792",B6 6PD,9115AQ,BIRMINGHAM,WITTON ROAD GARAGE LTD,{'$oid': '6413ca51080004ea81cb78be'},52.5100764,-1.8894605,Point
ATLAS ESTATE,BROOKVALE ROAD,WITTON,1,1,0,1,1,1,"_,07721 939669",B6 7EX,V106973,BIRMINGHAM,RIVERSIDE AUTOS,{'$oid': '6413ca51080004ea81cb78bf'},52.5154946,-1.8817002,Point
UNIT 27 WESTWOOD BUSINESS PARK,DULVERTON ROAD,WITTON,0,0,0,1,0,0,"_,0121 3287747",B6 7EQ,V106072,BIRMINGHAM,WESTWOOD MOTORS,{'$oid': '6413ca51080004ea81cb78c0'},52.5115433,-1.8753022,Point
230 WITTON LANE,WITTON,,0,0,0,1,0,0,"_,01213278282",B6 6QE,V103810,BIRMINGHAM,ASTON MOT CENTRE LTD,{'$oid': '6413ca51080004ea81cb78c1'},52.5120328,-1.8858314,Point
UNIT 29,SANDY LANE,ASTON,0,0,0,1,0,1,"_,0121 326 7422",B6 5TP,V104225,BIRMINGHAM,MANIR AUTOS,{'$oid': '6413ca51080004ea81cb78c2'},52.5011637,-1.8746275,Point
UNIT 29,BIRCH ROAD EAST,WITTON,0,0,0,1,0,1,"_,0121 3271018",B6 7DA,V102852,BIRMINGHAM,BARRATT VEHICLE MAINTENANCE,{'$oid': '6413ca51080004ea81cb78c3'},52.51517639999999,-1.8755318,Point
UNIT 31B,BIDAVON IND EST,WATERLOO ROAD,0,0,0,1,0,0,"_,01789 333040",B50 4JN,1AKV17,BIDFORD ON AVON,,{'$oid': '6413ca51080004ea81cb78c4'},52.17344370000001,-1.8539344,Point
3 BIRCH ROAD,,WITTON,0,0,0,1,1,1,"_,01213287768",B6 7DD,V104147,BIRMINGHAM,ROOPYAL UNICORN MOT CENTRE,{'$oid': '6413ca51080004ea81cb78c5'},52.5162613,-1.878134,Point
21 SANDY LANE,ASTON,ASTON,0,0,0,1,0,0,"_,01213288302",B6 5TP,V110207,BIRMINGHAM,SMART MOT AND SERVICE CENTRE LTD,{'$oid': '6413ca51080004ea81cb78c6'},52.501088,-1.8751542,Point
HOME JAMES MOTOR PREMISES,MOOR LANE,,0,0,0,1,0,1,"_,07867863141",B6 7HH,S003075,BIRMINGHAM,FAST FIT,{'$oid': '6413ca51080004ea81cb78c7'},52.5230679,-1.8807357,Point
MOOR LANE,WITTON,,0,0,0,1,0,0,"_,01213563175",B6 7HH,54318,BIRMINGHAM,RPM GARAGE,{'$oid': '6413ca51080004ea81cb78c8'},52.5218136,-1.8791306,Point
439 443 LICHFIELD ROAD,ASTON,,0,0,0,1,0,0,"_,01213276545",B6 7SS,54753,BIRMINGHAM,MIDLAND LINK MOTORS LTD,{'$oid': '6413ca51080004ea81cb78c9'},52.506987,-1.86534,Point
337 LICHFIELD ROAD,ASTON,,0,0,0,1,1,1,"_,0121 327 3233",B6 7ST,V106094,BIRMINGHAM,FLORA MOTOR ENGINEERS LIMITED,{'$oid': '6413ca51080004ea81cb78ca'},52.5046432,-1.8702492,Point
283 OLD BIRMINGHAM ROAD,,,0,0,0,1,0,0,"_,0121 4451919",B60 1HQ,51515,BROMSGROVE,LICKEY HILLS GARAGE,{'$oid': '6413ca51080004ea81cb78cb'},52.36734180000001,-2.0304557,Point
UNIT 2,501 - 527 LICHFIELD ROAD,,1,1,0,1,0,0,"_,0121 359 8637",B6 7SR,S003120,BIRMINGHAM,THE AUTO WORKSHOP,{'$oid': '6413ca51080004ea81cb78cc'},52.5078087,-1.8626421,Point
18 BUNTSFORD DRIVE,,,0,0,0,1,0,0,"_,01527 575157",B60 3AJ,V102757,BROMSGROVE,ARBURY BROMSGROVE,{'$oid': '6413ca51080004ea81cb78cd'},52.3149295,-2.0655176,Point
UNIT 30 SUGARBROOK ROAD,ASTON FIELDS INDUSTRIAL ESTATE,,0,0,0,1,0,0,"_,01527 575390",B60 3DN,S000656,BROMSGROVE,MBM ENGINEERING LIMITED,{'$oid': '6413ca51080004ea81cb78ce'},52.3187452,-2.0589019,Point
24 BUNTSFORD DRIVE,,,0,0,0,1,0,0,"_,01527 836511",B60 3AJ,V101445,BROMSGROVE,,{'$oid': '6413ca51080004ea81cb78cf'},52.3148901,-2.0677741,Point
